Query No.:3
Name:"Prospect Park Drummers Grove"		checkinsCount:826		lat: 40.65535816	lng:-73.962932	Category:4bf58dd8d48988d1e5931735
Name:"netflix"		checkinsCount:1		lat: 40.648546	lng:-73.967601	Category:4bf58dd8d48988d17f941735
Name:"The Grecian Shelter"		checkinsCount:8		lat: 40.65373076990769	lng:-73.96765871566664	Category:4deefb944765f83613cdba6e
Name:"Cynthia King Dance Studio"		checkinsCount:4		lat: 40.649003060128756	lng:-73.95720661409769	Category:4bf58dd8d48988d134941735
Name:"Diego Martin T&T of Brooklyn"		checkinsCount:44		lat: 40.652298501083976	lng:-73.95915243537874	Category:4deefb944765f83613cdba6e
Name:"Smug Ink-y's Joint"		checkinsCount:18		lat: 40.65865930797768	lng:-73.96537147003376	Category:4bf58dd8d48988d103941735
Name:"THTKB \"The House That Kettlebells Built!\""		checkinsCount:42		lat: 40.65146445636439	lng:-73.9616377773897	Category:4bf58dd8d48988d17e941735
Name:"Erasmus Hall High School"		checkinsCount:388		lat: 40.64331928441533	lng:-73.9437288242994	Category:4bf58dd8d48988d13d941735
Name:"Strut Institute"		checkinsCount:2		lat: 40.64852077272942	lng:-73.95837755314815	Category:4bf58dd8d48988d1e2931735
Name:"La Casa de Salsa!"		checkinsCount:29		lat: 40.65405821619552	lng:-73.96183866968715	Category:4bf58dd8d48988d134941735
Name:"Estadio de WingBar Warriors"		checkinsCount:8		lat: 40.65130947735561	lng:-73.96900751780589	Category:4bf58dd8d48988d18c941735
Name:"The Hootenanny"		checkinsCount:13		lat: 40.65583529835113	lng:-73.95850383046456	Category:4bf58dd8d48988d182941735
Name:"watching bates motel"		checkinsCount:8		lat: 40.651659407494435	lng:-73.9639394166056	Category:4bf58dd8d48988d1f1931735
Name:"Urban Hangout Suite"		checkinsCount:40		lat: 40.65404376666667	lng:-73.9613964	Category:4bf58dd8d48988d1f1931735
Name:"Cool Super Cool"		checkinsCount:8		lat: 40.65216884352984	lng:-73.95825127574912	Category:4bf58dd8d48988d1f1931735
Name:"Heavyto"		checkinsCount:1		lat: 40.65670026514134	lng:-73.9681293625921	Category:4bf58dd8d48988d1e9931735
Name:"Spiritual Reader"		checkinsCount:1		lat: 40.653243	lng:-73.959495	Category:4bf58dd8d48988d1f1931735
Name:"Azibe"		checkinsCount:8		lat: 40.654867	lng:-73.961489	Category:4bf58dd8d48988d1e5931735
Name:"Sophie's Choice"		checkinsCount:2		lat: 40.64727100119374	lng:-73.96631240844727	Category:4bf58dd8d48988d1f1931735
Name:"Mario Sport"		checkinsCount:16		lat: 40.650122	lng:-73.96044	Category:4bf58dd8d48988d1e4931735
Name:"Casa Bonita :D"		checkinsCount:12		lat: 40.649397	lng:-73.967803	Category:4bf58dd8d48988d1e1931735
Name:"WA3C Supper\/CLUB"		checkinsCount:4		lat: 40.64807	lng:-73.96710021	Category:4d4b7104d754a06370d81259
Name:"BK Studio OMP"		checkinsCount:2		lat: 40.653812	lng:-73.960887	Category:4d4b7104d754a06370d81259
Name:"Cloud 9! Soho!"		checkinsCount:7		lat: 40.64858	lng:-73.96243	Category:4bf58dd8d48988d1d4941735
Name:"188 Parkside"		checkinsCount:4		lat: 40.654642	lng:-73.96137	Category:5032792091d4c4b30a586d5c
Name:"HDAMC CHANNEL 743"		checkinsCount:0		lat: 40.652541	lng:-73.958464	Category:4bf58dd8d48988d17f941735
Name:"Music Video Game Center"		checkinsCount:0		lat: 40.655842	lng:-73.960089	Category:4bf58dd8d48988d17f941735
Name:"Diplomat Lanes"		checkinsCount:0		lat: 40.648557	lng:-73.957628	Category:4bf58dd8d48988d1e4931735
Name:"R.H.Guest"		checkinsCount:1		lat: 40.647572	lng:-73.967533	Category:4bf58dd8d48988d1e2931735
Name:"Budhalite Recording Studio"		checkinsCount:22		lat: 40.65185534179241	lng:-73.96269389455495	Category:4bf58dd8d48988d1e5931735
Name:"Baseball 1"		checkinsCount:1		lat: 40.649879455566406	lng:-73.95832061767578	Category:4bf58dd8d48988d18c941735
Query No.:4
Name:"Prospect Park Zoo"		checkinsCount:5681		lat: 40.665014570215	lng:-73.96446704864502	Category:4bf58dd8d48988d17b941735
Name:"Prospect Park Oriental Pavilion"		checkinsCount:1652		lat: 40.659685	lng:-73.96364601832441	Category:4bf58dd8d48988d162941735
Name:"Prospect Park Carousel"		checkinsCount:1547		lat: 40.66358142556565	lng:-73.96403125201438	Category:5109983191d435c0d71c2bb1
Name:"Ebbets Field (Montgomery Side)"		checkinsCount:650		lat: 40.664075385193634	lng:-73.95823979598147	Category:4d954b06a243a5684965b473
Name:"S Square"		checkinsCount:113		lat: 40.660005	lng:-73.960912	Category:4bf58dd8d48988d1f1931735
Name:"Lefferts Historic House"		checkinsCount:468		lat: 40.664270387061535	lng:-73.96396237546189	Category:4deefb944765f83613cdba6e
Name:"Despers Steel Orchestra"		checkinsCount:1		lat: 40.6626091003418	lng:-73.962646484375	Category:4bf58dd8d48988d1e5931735
Name:"Ebbets Field (Former Site)"		checkinsCount:527		lat: 40.66508781370008	lng:-73.95806193351746	Category:4deefb944765f83613cdba6e
Name:"Thornfield Hall"		checkinsCount:95		lat: 40.659992	lng:-73.960225	Category:4bf58dd8d48988d1f4931735
Name:"Elastic City HQ"		checkinsCount:35		lat: 40.6613596796435	lng:-73.95984121697178	Category:4bf58dd8d48988d182941735
Name:"Sea Lion Court @ Prospect Park Zoo"		checkinsCount:114		lat: 40.665558263688894	lng:-73.96480037184564	Category:4bf58dd8d48988d17b941735
Name:"Maryland Monument"		checkinsCount:23		lat: 40.65805804113881	lng:-73.96979957593753	Category:4deefb944765f83613cdba6e
Name:"Bonsai Museum"		checkinsCount:158		lat: 40.6664	lng:-73.962	Category:4bf58dd8d48988d181941735
Name:"Charles Barkley Center"		checkinsCount:260		lat: 40.66163237932808	lng:-73.9579183622102	Category:4bf58dd8d48988d18b941735
Name:"At&t Mobile Lounge"		checkinsCount:5		lat: 40.661149	lng:-73.967948	Category:4bf58dd8d48988d1f1931735
Name:"C V Starr Bonsai Museum, Brooklyn Botanic Garden"		checkinsCount:3		lat: 40.666263580322266	lng:-73.96199798583984	Category:4bf58dd8d48988d181941735
Name:"Movie Zone"		checkinsCount:25		lat: 40.660824986947645	lng:-73.96073662936708	Category:4bf58dd8d48988d17f941735
Name:"No Prospects Park"		checkinsCount:15		lat: 40.657476962818755	lng:-73.96143688488303	Category:4bf58dd8d48988d1e4931735
Name:"Boom Radio"		checkinsCount:58		lat: 40.660778027268194	lng:-73.96073900600703	Category:4bf58dd8d48988d1e5931735
Name:"Dongan Oak Marker"		checkinsCount:7		lat: 40.666082	lng:-73.966551	Category:4deefb944765f83613cdba6e
Name:"Stufio W"		checkinsCount:10		lat: 40.66188097000122	lng:-73.95776152610779	Category:4bf58dd8d48988d1e2931735
Name:"580 Flatbush Avenue"		checkinsCount:3		lat: 40.661728	lng:-73.961335	Category:4bf58dd8d48988d1e5931735
Name:"Prospect Park Disc Golf Course"		checkinsCount:22		lat: 40.66260927332262	lng:-73.96974218053019	Category:52e81612bcbc57f1066b79e8
Name:"prospect park trop fest"		checkinsCount:2		lat: 40.6588134765625	lng:-73.96286010742188	Category:4bf58dd8d48988d135941735
Name:"Panhandle Stage @ Outsidelands"		checkinsCount:1		lat: 40.661145	lng:-73.96797	Category:4bf58dd8d48988d1e5931735
Name:"Sutro Stage"		checkinsCount:1		lat: 40.659955	lng:-73.970345	Category:4bf58dd8d48988d1e5931735
Name:"Marcela Faé"		checkinsCount:3		lat: 40.661826	lng:-73.968594	Category:4bf58dd8d48988d1e2931735
Name:"Kick Back Lounge hosted by American Express Serve"		checkinsCount:19		lat: 40.660316	lng:-73.96955	Category:4bf58dd8d48988d1f1931735
Name:"Tropfest"		checkinsCount:257		lat: 40.66113370666421	lng:-73.96903047605844	Category:4bf58dd8d48988d1f1931735
Name:"Montgomery Gardens"		checkinsCount:10		lat: 40.666804943468954	lng:-73.96146297454834	Category:4bf58dd8d48988d130941735
Name:"NoHomme"		checkinsCount:1		lat: 40.660667947809586	lng:-73.95895154028435	Category:4bf58dd8d48988d1e5931735
Name:"Extra Mooga"		checkinsCount:53		lat: 40.660629647802324	lng:-73.96523658769974	Category:4bf58dd8d48988d1f1931735
Name:"Rothesay Bay Community Club - Brooklyn Branch"		checkinsCount:12		lat: 40.661475	lng:-73.959636	Category:4bf58dd8d48988d18e941735
Name:"125 Ocean Ave"		checkinsCount:61		lat: 40.65865930797768	lng:-73.96537147003376	Category:4bf58dd8d48988d103941735
Name:"Ruttydom"		checkinsCount:63		lat: 40.66475477099297	lng:-73.9641058682518	Category:4deefb944765f83613cdba6e
Name:"the rockland conservatory of music"		checkinsCount:1		lat: 40.659542083740234	lng:-73.9623031616211	Category:5032792091d4c4b30a586d5c
Name:"43 Hawthrone Street"		checkinsCount:2		lat: 40.660980224609375	lng:-73.96328735351562	Category:4bf58dd8d48988d1f1931735
Name:"Between Neighbors Art Show"		checkinsCount:1		lat: 40.660411	lng:-73.96043	Category:4bf58dd8d48988d1e2931735
Name:"brooklyn family healh care"		checkinsCount:0		lat: 40.65796	lng:-73.960402	Category:4bf58dd8d48988d1e1931735
Name:"Flatbush Guitar Lessons"		checkinsCount:1		lat: 40.659138	lng:-73.960573	Category:4bf58dd8d48988d1e5931735
Name:"C and L Fine Arts"		checkinsCount:0		lat: 40.659669	lng:-73.969699	Category:4bf58dd8d48988d1e2931735
Name:"Field of Dreams Filming Location"		checkinsCount:0		lat: 40.664347	lng:-73.959028	Category:4bf58dd8d48988d1f1931735
Name:"Flex Video"		checkinsCount:0		lat: 40.662554	lng:-73.962182	Category:4bf58dd8d48988d17f941735
Query No.:5
Name:"P.S. 181"		checkinsCount:124		lat: 40.64897382734917	lng:-73.94644971445123	Category:4bf58dd8d48988d13b941735
Name:"LaLaLand"		checkinsCount:22		lat: 40.64913558959961	lng:-73.94862365722656	Category:4bf58dd8d48988d18e941735
Name:"Bowling Alley"		checkinsCount:21		lat: 40.650001628208294	lng:-73.94999714666545	Category:4bf58dd8d48988d1e4931735
Name:"Volume 2 Mas Camp"		checkinsCount:7		lat: 40.64708949112323	lng:-73.95278682918975	Category:4bf58dd8d48988d1e5931735
Name:"Cameo Gallery"		checkinsCount:21		lat: 40.65062516997745	lng:-73.95053097791812	Category:4bf58dd8d48988d1e2931735
Name:"Sockless Summer Headquarters"		checkinsCount:6		lat: 40.65537976784749	lng:-73.95335509291483	Category:4bf58dd8d48988d1e2931735
Name:"JPL Hotspot"		checkinsCount:5		lat: 40.64976598049488	lng:-73.95017509058015	Category:4bf58dd8d48988d135941735
Name:"New Life Center Of Truth"		checkinsCount:2		lat: 40.648461	lng:-73.954959	Category:4bf58dd8d48988d1f2931735
Name:"Dueling Ukes"		checkinsCount:2		lat: 40.655548095703125	lng:-73.9553451538086	Category:4bf58dd8d48988d1e2931735
Name:"HeinousDingus HQ"		checkinsCount:453		lat: 40.65298259340731	lng:-73.95579458991466	Category:4bf58dd8d48988d1f2931735
Name:"Clay's House"		checkinsCount:2		lat: 40.652949	lng:-73.956787	Category:4bf58dd8d48988d1f1931735
Name:"Wildboar Studios"		checkinsCount:14		lat: 40.65046373464958	lng:-73.95108202798738	Category:4bf58dd8d48988d1e5931735
Name:"Brooklyn Kickball Dance"		checkinsCount:142		lat: 40.649903	lng:-73.949967	Category:4bf58dd8d48988d1f1931735
Name:"Volume 2"		checkinsCount:65		lat: 40.64745676763354	lng:-73.95310827150219	Category:4bf58dd8d48988d1f1931735
Name:"BROOKLYN BURGER 'N BEER GARDEN"		checkinsCount:218		lat: 40.650455	lng:-73.94991136	Category:4bf58dd8d48988d14e941735
Name:"Caribbean American Pride"		checkinsCount:3		lat: 40.653587	lng:-73.952678	Category:4bf58dd8d48988d1e5931735
Name:"Pantonics Pan Yard"		checkinsCount:11		lat: 40.64773625088903	lng:-73.9536248740982	Category:4bf58dd8d48988d1e5931735
Name:"Galeria West Art & Music Gallery"		checkinsCount:2		lat: 40.650001628208294	lng:-73.94999714666545	Category:4bf58dd8d48988d1e2931735
Name:"Annual Health and Wellness Day"		checkinsCount:1		lat: 40.65266799926758	lng:-73.95405578613281	Category:4bf58dd8d48988d1f1931735
Name:"The Sam's"		checkinsCount:5		lat: 40.647804260253906	lng:-73.94577026367188	Category:4bf58dd8d48988d1f1931735
Name:"Collective Consumption"		checkinsCount:32		lat: 40.65018	lng:-73.949983	Category:4bf58dd8d48988d1e2931735
Name:"New music bake sale"		checkinsCount:22		lat: 40.65001821064434	lng:-73.95014064983525	Category:4bf58dd8d48988d1e5931735
Name:"IS 246"		checkinsCount:4		lat: 40.64881	lng:-73.952208	Category:4bf58dd8d48988d13b941735
Name:"Santi's Jogging Route"		checkinsCount:30		lat: 40.64879276915289	lng:-73.94355087445453	Category:4bf58dd8d48988d187941735
Name:"Brooklyn Events Space &  Baby Shower Party Hall"		checkinsCount:4		lat: 40.65594803325412	lng:-73.9529013633728	Category:4bf58dd8d48988d1f1931735
Name:"BG Studios"		checkinsCount:1		lat: 40.653787	lng:-73.955344	Category:4bf58dd8d48988d1e5931735
Name:"Eglisias Apocalypse De Brooklyn"		checkinsCount:35		lat: 40.648411778846345	lng:-73.95217264328431	Category:4bf58dd8d48988d1e2931735
Name:"Shinku sweetsweet home"		checkinsCount:18		lat: 40.647824541622086	lng:-73.95103454589844	Category:4bf58dd8d48988d106941735
Name:"Casa Wasafemmesco"		checkinsCount:3		lat: 40.648925135600656	lng:-73.94957811680004	Category:4bf58dd8d48988d1f2931735
Name:"Anabella Lenzu"		checkinsCount:8		lat: 40.64974976067019	lng:-73.94935425115726	Category:4bf58dd8d48988d134941735
Name:"Cosmo Auto Performance"		checkinsCount:8		lat: 40.652783	lng:-73.944415	Category:4bf58dd8d48988d1f4931735
Name:"Ide's Lab"		checkinsCount:1		lat: 40.648923	lng:-73.950175	Category:4bf58dd8d48988d1e5931735
Name:"Magic Maven"		checkinsCount:0		lat: 40.650104	lng:-73.949582	Category:4bf58dd8d48988d137941735
Name:"RichMoneyMerv"		checkinsCount:0		lat: 40.6501	lng:-73.94958	Category:4bf58dd8d48988d1e7931735
Name:"TOATOA"		checkinsCount:0		lat: 40.6501	lng:-73.94958	Category:4bf58dd8d48988d1e1931735
Name:"EZ Plumbing"		checkinsCount:0		lat: 40.6501	lng:-73.94958	Category:507c8c4091d498d9fc8c67a9
Name:"Travis Mayhew"		checkinsCount:0		lat: 40.65374	lng:-73.954877	Category:5032792091d4c4b30a586d5c
Name:"Yoeldin Video"		checkinsCount:0		lat: 40.648482	lng:-73.949238	Category:4bf58dd8d48988d17f941735
Name:"Bushwick Cooperative"		checkinsCount:0		lat: 40.6501	lng:-73.94958	Category:4bf58dd8d48988d1e2931735
Name:"Brooklyn Safe Boating"		checkinsCount:0		lat: 40.64946885522884	lng:-73.94528388977051	Category:4bf58dd8d48988d1f1931735
Name:"Merdiven"		checkinsCount:0		lat: 40.649713056764504	lng:-73.95206451416014	Category:4bf58dd8d48988d17c941735
Name:"DAGANG PINDANG"		checkinsCount:0		lat: 40.650901491480646	lng:-73.94691467285156	Category:4bf58dd8d48988d1f1931735
Name:"Steel Orchestra"		checkinsCount:0		lat: 40.65067672729492	lng:-73.95001220703125	Category:4bf58dd8d48988d1e5931735
Name:"Pan Fantasy Steel Orchestra"		checkinsCount:1		lat: 40.650672912597656	lng:-73.95003509521484	Category:4bf58dd8d48988d1e5931735
Query No.:6
Name:"George Wingate Park"		checkinsCount:1677		lat: 40.65893054008484	lng:-73.94471526145935	Category:4bf58dd8d48988d162941735
Name:"Metro Steel Orchestra"		checkinsCount:1		lat: 40.663818359375	lng:-73.95606231689453	Category:4bf58dd8d48988d1e5931735
Name:"Wingate High School"		checkinsCount:310		lat: 40.65828547339784	lng:-73.94396991737659	Category:4bf58dd8d48988d13d941735
Name:"Brooklandia"		checkinsCount:14		lat: 40.66279170524783	lng:-73.94976754137224	Category:52e81612bcbc57f1066b79ee
Name:"The Dorsey Art Club"		checkinsCount:14		lat: 40.6585059016397	lng:-73.95330917267589	Category:4bf58dd8d48988d1e2931735
Name:"Museum of Women's Resistance (MoWR)"		checkinsCount:3		lat: 40.663272857666016	lng:-73.95616912841797	Category:4bf58dd8d48988d190941735
Name:"Medgar Evers Auditorium"		checkinsCount:75		lat: 40.666496316501636	lng:-73.95678759986882	Category:4bf58dd8d48988d137941735
Name:"Sloan McGill Collection"		checkinsCount:1		lat: 40.659796	lng:-73.95599	Category:4bf58dd8d48988d1e2931735
Name:"Jeopardy"		checkinsCount:3		lat: 40.66216278076172	lng:-73.95245361328125	Category:4bf58dd8d48988d1f1931735
Name:"Clove Road"		checkinsCount:39		lat: 40.66511372014757	lng:-73.9500947288325	Category:4deefb944765f83613cdba6e
Name:"Kamau Studios"		checkinsCount:4		lat: 40.66248	lng:-73.95609	Category:4bf58dd8d48988d1e2931735
Name:"helper"		checkinsCount:126		lat: 40.66052519851259	lng:-73.95274664886308	Category:4bf58dd8d48988d1e2931735
Name:"Inkwell Cafe"		checkinsCount:305		lat: 40.6627456055465	lng:-73.9537855946241	Category:4bf58dd8d48988d1e7931735
Name:"Poisson d'Avril"		checkinsCount:2		lat: 40.661967	lng:-73.952378	Category:4bf58dd8d48988d1f1931735
Name:"On Your Toes Dancers"		checkinsCount:1		lat: 40.661033630371094	lng:-73.94515228271484	Category:4bf58dd8d48988d134941735
Name:"St. Jude Community Center"		checkinsCount:10		lat: 40.6612003296115	lng:-73.94693763374458	Category:4bf58dd8d48988d1f1931735
Name:"Bacchanal Fever HQ"		checkinsCount:1		lat: 40.663797	lng:-73.951104	Category:4bf58dd8d48988d1f1931735
Name:"Jouvert"		checkinsCount:48		lat: 40.6635627472696	lng:-73.95282126946309	Category:4bf58dd8d48988d1f1931735
Name:"Savoir Fair Records & Elect"		checkinsCount:1		lat: 40.658972	lng:-73.950268	Category:4bf58dd8d48988d1f1931735
Name:"That Girl Studios"		checkinsCount:51		lat: 40.659779	lng:-73.952123	Category:4bf58dd8d48988d1f2931735
Name:"I Cannot Believe This Is Called Entertainment TV!"		checkinsCount:1		lat: 40.6630744934082	lng:-73.95585632324219	Category:4bf58dd8d48988d1f1931735
Name:"Nets Experience"		checkinsCount:2		lat: 40.657689815513315	lng:-73.94425392150879	Category:4bf58dd8d48988d1f1931735
Name:"Wess \"Warmdaddy\" Anderson Sighting"		checkinsCount:2		lat: 40.660509048327555	lng:-73.94560015792132	Category:4deefb944765f83613cdba6e
Name:"PLG Trueblood Gathering"		checkinsCount:3		lat: 40.65721893310547	lng:-73.9552993774414	Category:4bf58dd8d48988d1f1931735
Name:"Ctab Sda Church"		checkinsCount:3		lat: 40.664227	lng:-73.945984	Category:4bf58dd8d48988d181941735
Name:"Libat Ohayon"		checkinsCount:0		lat: 40.664363513479046	lng:-73.94534826278687	Category:4bf58dd8d48988d1e2931735
Name:"The Betzalel Gallery & Picture Framing"		checkinsCount:0		lat: 40.66416819521894	lng:-73.9433741569519	Category:4bf58dd8d48988d1e2931735
Query No.:9
Name:"Ai Weiwei: According to what?"		checkinsCount:49		lat: 40.671486216736156	lng:-73.96406569028139	Category:4bf58dd8d48988d1e2931735
Name:"Education Gallery"		checkinsCount:12		lat: 40.67064038286883	lng:-73.96401403287857	Category:4bf58dd8d48988d18f941735
Name:"A Butterfly for Brooklyn"		checkinsCount:8		lat: 40.66956949630691	lng:-73.9695355569222	Category:507c8c4091d498d9fc8c67a9
Name:"Shukri's Military Base"		checkinsCount:16		lat: 40.67092261955317	lng:-73.9645743370056	Category:4bf58dd8d48988d187941735
Name:"ACASA 16th Triennial Symposium on African Art"		checkinsCount:7		lat: 40.67126039616068	lng:-73.96412308737942	Category:4bf58dd8d48988d18f941735
Name:"El Anatsui @ Brooklyn Museum"		checkinsCount:45		lat: 40.67133664759654	lng:-73.96400255345384	Category:4bf58dd8d48988d18f941735
Name:"Wangechi Mutu: A Fantastic Journey"		checkinsCount:3		lat: 40.671464	lng:-73.964008	Category:4bf58dd8d48988d18f941735
Name:"Mister Rogers' Neighborhood"		checkinsCount:2		lat: 40.6716905	lng:-73.967534	Category:4bf58dd8d48988d1e1931735
Name:"Panorama"		checkinsCount:3		lat: 40.67047119140625	lng:-73.9642333984375	Category:4bf58dd8d48988d1e5931735
Query No.:10
Name:"Food Truck Rally"		checkinsCount:2622		lat: 40.67366976852613	lng:-73.97041944524678	Category:4bf58dd8d48988d1cb941735
Name:"Sweetsounds Studios NYC"		checkinsCount:7		lat: 40.67447402744531	lng:-73.9640427314374	Category:4bf58dd8d48988d1e5931735
Name:"JFK Statue Grand Army Plaza"		checkinsCount:987		lat: 40.67425275938598	lng:-73.97072363964097	Category:507c8c4091d498d9fc8c67a9
Name:"D-Day Rememberance"		checkinsCount:1		lat: 40.67487663321662	lng:-73.96721676567782	Category:4bf58dd8d48988d12d941735
Name:"Brorby Acoustic"		checkinsCount:2		lat: 40.675802	lng:-73.968947	Category:4bf58dd8d48988d1e5931735
Name:"Sonnet Project - Sonnet #15"		checkinsCount:3		lat: 40.672045577994275	lng:-73.96487474441527	Category:507c8c4091d498d9fc8c67a9
Name:"Underhill Ave Annual Block Party"		checkinsCount:43		lat: 40.67686968065421	lng:-73.96523084802386	Category:4bf58dd8d48988d1f1931735
Name:"Reverend Cinima"		checkinsCount:14		lat: 40.674865	lng:-73.968117	Category:4bf58dd8d48988d17e941735
Name:"Helenlandia"		checkinsCount:9		lat: 40.672314685339664	lng:-73.96536860019786	Category:4bf58dd8d48988d1e2931735
Name:"Beretta's Platinum Penthouse"		checkinsCount:100		lat: 40.67379394637624	lng:-73.96551209194111	Category:4bf58dd8d48988d17c941735
Name:"Ides Of June"		checkinsCount:1		lat: 40.67486081675477	lng:-73.96737747488194	Category:4deefb944765f83613cdba6e
Name:"329 Lincoln Place"		checkinsCount:9		lat: 40.673452	lng:-73.965215325	Category:4bf58dd8d48988d182941735
Name:"Bookworm Loft"		checkinsCount:79		lat: 40.675631	lng:-73.964985	Category:4bf58dd8d48988d1f1931735
Name:"Hbo Movie Shoot"		checkinsCount:8		lat: 40.67680021242724	lng:-73.96923710020822	Category:4bf58dd8d48988d1e2931735
Name:"Film Screening"		checkinsCount:24		lat: 40.673375	lng:-73.966297	Category:4bf58dd8d48988d17f941735
Name:"New Hoots Project"		checkinsCount:42		lat: 40.676742029539845	lng:-73.96485776872495	Category:4bf58dd8d48988d1f1931735
Name:"Laundrypalooza"		checkinsCount:5		lat: 40.675032	lng:-73.968555	Category:4bf58dd8d48988d1f1931735
Name:"Jos And Aud"		checkinsCount:1		lat: 40.674908	lng:-73.968507	Category:4bf58dd8d48988d1e2931735
Name:"ART TAKES GRAND ARMY | RaiseART"		checkinsCount:0		lat: 40.67298949944538	lng:-73.96991729736328	Category:4deefb944765f83613cdba6e
Name:"Third Eye Entertainment"		checkinsCount:0		lat: 40.675125	lng:-73.965417	Category:5032792091d4c4b30a586d5c
Query No.:11
Query No.11	Exception:java.lang.ArrayIndexOutOfBoundsException: 1	Url:https://api.foursquare.com/v2/venues/search?intent=browse&sw=40.667,-73.964&ne=40.672,-73.95700000000001&client_id=P5U2CXX1J2OMF4DWDE05S5JBXYZMRR4OODPQT4BUNRNSDRE1&client_secret=RJQIU4H13SZQ3H41RMMF25WQL1F0COD2JBUVDGFKETELJEVY&limit=50&categoryId=4d4b7104d754a06370d81259&v=20141124
Query No.:12
Name:"The Classon Social Club"		checkinsCount:168		lat: 40.672963053552195	lng:-73.96060198545456	Category:4bf58dd8d48988d1c4941735
Name:"Five Myles"		checkinsCount:324		lat: 40.67277580632833	lng:-73.95947960694197	Category:4bf58dd8d48988d1e2931735
Name:"Museum Gardens Condo"		checkinsCount:13		lat: 40.672231	lng:-73.961084	Category:4bf58dd8d48988d1e5931735
Name:"P.S. 22 - The Children's International School"		checkinsCount:47		lat: 40.676981342967	lng:-73.96015116788654	Category:4bf58dd8d48988d13b941735
Name:"Caviar and Vodka"		checkinsCount:4		lat: 40.673061	lng:-73.963171	Category:507c8c4091d498d9fc8c67a9
Name:"Shambhala East"		checkinsCount:9		lat: 40.676280303608124	lng:-73.95714347502549	Category:4bf58dd8d48988d134941735
Name:"As You Wish"		checkinsCount:2		lat: 40.675509	lng:-73.957131	Category:4bf58dd8d48988d17b941735
Name:"Before I Die Mural"		checkinsCount:13		lat: 40.67364	lng:-73.963039	Category:507c8c4091d498d9fc8c67a9
Name:"apartment disaster 2014"		checkinsCount:2		lat: 40.675568	lng:-73.958388	Category:52e81612bcbc57f1066b79e7
Name:"Gus Is a Petulant Child At Video Games"		checkinsCount:5		lat: 40.675394735919234	lng:-73.95851531021651	Category:4bf58dd8d48988d1e1931735
Name:"The Bookshelf Museum"		checkinsCount:26		lat: 40.675661198897274	lng:-73.9596288429094	Category:4bf58dd8d48988d181941735
Name:"Food Lust: Shock Candy"		checkinsCount:4		lat: 40.67256034633651	lng:-73.96090308377738	Category:4bf58dd8d48988d1e2931735
Name:"Man Family Man Movie Night"		checkinsCount:5		lat: 40.67645419619745	lng:-73.959485346789	Category:4bf58dd8d48988d17e941735
Name:"Krow Hills"		checkinsCount:1		lat: 40.67622720223872	lng:-73.96011098909236	Category:4bf58dd8d48988d1e2931735
Name:"Sean Is A Petulant Child At Table Games."		checkinsCount:1		lat: 40.67225061955141	lng:-73.96199364360223	Category:4bf58dd8d48988d18e941735
Name:"Murdis Groutski Manor"		checkinsCount:6		lat: 40.676083871496694	lng:-73.96078828764772	Category:4bf58dd8d48988d1f1931735
Name:"Fritz Gallery"		checkinsCount:7		lat: 40.676657	lng:-73.963408	Category:4bf58dd8d48988d1e2931735
Name:"Park Place Summer Series BBQ"		checkinsCount:12		lat: 40.674171	lng:-73.95719	Category:4bf58dd8d48988d1f1931735
Name:"Caborca House"		checkinsCount:9		lat: 40.67282708939144	lng:-73.9572123540123	Category:4bf58dd8d48988d1f1931735
Name:"JumpNFunk"		checkinsCount:2		lat: 40.6721037	lng:-73.9619791	Category:5032792091d4c4b30a586d5c
Name:"Vishnu Exhibit"		checkinsCount:1		lat: 40.673368	lng:-73.96245	Category:4bf58dd8d48988d18f941735
Name:"O's apartment"		checkinsCount:64		lat: 40.67307	lng:-73.9605778	Category:4bf58dd8d48988d182941735
Name:"The Dungeon"		checkinsCount:4		lat: 40.676248	lng:-73.95904	Category:4bf58dd8d48988d18e941735
Name:"Dance Lines"		checkinsCount:3		lat: 40.672942	lng:-73.958715	Category:4bf58dd8d48988d134941735
Name:"Casa"		checkinsCount:0		lat: 40.67598392043729	lng:-73.96076023578644	Category:4deefb944765f83613cdba6e
Name:"Trevor Brown artist photographer iconoclast"		checkinsCount:0		lat: 40.67421006771693	lng:-73.96317958831787	Category:52e81612bcbc57f1066b79ee
Query No.:14
Name:"Erichaus"		checkinsCount:4		lat: 40.68015074223417	lng:-73.96819823765549	Category:4bf58dd8d48988d1e1931735
Name:"610 Dean Studios"		checkinsCount:159		lat: 40.680495500564575	lng:-73.97001922130585	Category:4bf58dd8d48988d1f4941735
Name:"As LoLas - Rehearsal"		checkinsCount:18		lat: 40.67878935269097	lng:-73.9686057479434	Category:4bf58dd8d48988d1e9931735
Name:"warehouse 623"		checkinsCount:15		lat: 40.679663425018035	lng:-73.96934615175348	Category:4bf58dd8d48988d1e2931735
Name:"Soapbox Gallery"		checkinsCount:86		lat: 40.68042386240377	lng:-73.968823851687	Category:4bf58dd8d48988d1e1931735
Name:"Seeds Brooklyn"		checkinsCount:11		lat: 40.678905707240666	lng:-73.96841060227928	Category:4bf58dd8d48988d1e5931735
Name:"Fernands & Goldman House Of Food & Booze"		checkinsCount:66		lat: 40.68064645	lng:-73.96967964	Category:4bf58dd8d48988d18e941735
Name:"House of AG"		checkinsCount:2		lat: 40.677801	lng:-73.964479	Category:52e81612bcbc57f1066b79e7
Name:"Soup Box Gallery"		checkinsCount:72		lat: 40.68018	lng:-73.969272	Category:4bf58dd8d48988d1e2931735
Name:"Rehearsal With Dimitri"		checkinsCount:11		lat: 40.677290039769275	lng:-73.96597126480167	Category:4bf58dd8d48988d1e5931735
Name:"Firehouse Condo"		checkinsCount:4		lat: 40.68008804321289	lng:-73.96568298339844	Category:4bf58dd8d48988d18f941735
Name:"The 6th Annual Prospect Heights Craft Fair at PS9"		checkinsCount:1		lat: 40.677696701326745	lng:-73.96549701690674	Category:4bf58dd8d48988d1f1931735
Name:"Barclay Arena Vue Pad#96"		checkinsCount:14		lat: 40.680448931899335	lng:-73.96880663297938	Category:4bf58dd8d48988d1f1931735
Name:"Panda Society"		checkinsCount:14		lat: 40.677586	lng:-73.964264	Category:4bf58dd8d48988d17b941735
Name:"Microgravity HQ"		checkinsCount:34		lat: 40.677684325976585	lng:-73.96892142433447	Category:4bf58dd8d48988d1e2931735
Name:"Brian Dupont Studio"		checkinsCount:1		lat: 40.68053	lng:-73.969862	Category:4bf58dd8d48988d1e2931735
Name:"\"Leaving Circadia\" Film Shoot- Toms House."		checkinsCount:10		lat: 40.67899	lng:-73.96839	Category:4d4b7104d754a06370d81259
Name:"628 Vanderbilt Ave"		checkinsCount:3		lat: 40.677488	lng:-73.969223	Category:4bf58dd8d48988d1f1931735
Name:"Action Pals Studio"		checkinsCount:13		lat: 40.678408	lng:-73.96734	Category:4bf58dd8d48988d1f2931735
Name:"Praxis"		checkinsCount:1		lat: 40.680602	lng:-73.970219	Category:4bf58dd8d48988d1e2931735
Name:"The Aristonian"		checkinsCount:42		lat: 40.678297	lng:-73.969634	Category:4bf58dd8d48988d1e2931735
Name:"Bradman Productions"		checkinsCount:1		lat: 40.67849875	lng:-73.96758949	Category:4bf58dd8d48988d1f1931735
Query No.:15
Name:"Jack Theater"		checkinsCount:297		lat: 40.68292103827072	lng:-73.96571871986372	Category:4bf58dd8d48988d1f1931735
Name:"Gallim Dance"		checkinsCount:12		lat: 40.6826069717285	lng:-73.96684885025023	Category:4bf58dd8d48988d134941735
Name:"E Gallery"		checkinsCount:27		lat: 40.68452704537074	lng:-73.9679217338562	Category:4bf58dd8d48988d1e2931735
Name:"Tiff & Matt's"		checkinsCount:7		lat: 40.68301655287003	lng:-73.96757262159247	Category:4bf58dd8d48988d1f1931735
Name:"Honeycomb Loft"		checkinsCount:8		lat: 40.6830034454122	lng:-73.96716510911945	Category:4bf58dd8d48988d1e7931735
Name:"Paul Robeson Theater"		checkinsCount:266		lat: 40.685968	lng:-73.970873	Category:4bf58dd8d48988d137941735
Name:"The Bunny Show"		checkinsCount:22		lat: 40.68537112803845	lng:-73.96740943193436	Category:4bf58dd8d48988d135941735
Name:"Where 's The Barclay Center?m"		checkinsCount:2		lat: 40.68342671145884	lng:-73.9695183382782	Category:4bf58dd8d48988d1f1931735
Name:"south oxford space"		checkinsCount:11		lat: 40.68423	lng:-73.967648	Category:4bf58dd8d48988d137941735
Name:"The Porch"		checkinsCount:3		lat: 40.68314000286779	lng:-73.96700439973823	Category:4bf58dd8d48988d1f1931735
Name:"LaTex Crawfish Boil"		checkinsCount:34		lat: 40.682822	lng:-73.9658	Category:4bf58dd8d48988d134941735
Name:"Tara Bouley's Tips"		checkinsCount:1		lat: 40.682301	lng:-73.967655	Category:4bf58dd8d48988d1f1931735
Name:"Marckato"		checkinsCount:1		lat: 40.684747	lng:-73.969344	Category:4bf58dd8d48988d1e9931735
Name:"Twin Peaks Season 2 Marathon"		checkinsCount:14		lat: 40.68253555031676	lng:-73.96763001764619	Category:4bf58dd8d48988d1f1931735
Name:"The Chatroom"		checkinsCount:1		lat: 40.682628	lng:-73.965434	Category:4bf58dd8d48988d1f1931735
Name:"P.S.11 Gymnasium"		checkinsCount:7		lat: 40.6854383	lng:-73.96571853333333	Category:4bf58dd8d48988d18b941735
Name:"Casa Manderson"		checkinsCount:1		lat: 40.684186	lng:-73.964892	Category:4bf58dd8d48988d193941735
Name:"Tze Chun Dance Company"		checkinsCount:69		lat: 40.684834	lng:-73.967436	Category:4d4b7104d754a06370d81259
Name:"362 Adelphi"		checkinsCount:2		lat: 40.686950025164556	lng:-73.970671984023	Category:4bf58dd8d48988d1e2931735
Name:"Punch Bugy White On Clinton"		checkinsCount:2		lat: 40.686446	lng:-73.967356	Category:4bf58dd8d48988d1f4931735
Name:"Brooklyn Studio Lofts"		checkinsCount:9		lat: 40.68261026	lng:-73.96590007	Category:4bf58dd8d48988d1e5931735
Name:"Black Beauty Auto"		checkinsCount:16		lat: 40.684803	lng:-73.96502	Category:4bf58dd8d48988d1f1931735
Name:"12bb"		checkinsCount:1		lat: 40.6841336	lng:-73.9661116	Category:4bf58dd8d48988d1e5931735
Name:"Scrapwood City"		checkinsCount:1		lat: 40.683925	lng:-73.96434	Category:4bf58dd8d48988d1e2931735
Name:"Cut"		checkinsCount:1		lat: 40.68230056762695	lng:-73.96531677246094	Category:4bf58dd8d48988d1f1931735
Name:"Laffaholics Comedy Club"		checkinsCount:2		lat: 40.6829234	lng:-73.9657914	Category:4bf58dd8d48988d18e941735
Name:"Huckstable Residence"		checkinsCount:3		lat: 40.688338991150644	lng:-73.96537147003376	Category:4bf58dd8d48988d103941735
Name:"NY Shakespeare Exchange"		checkinsCount:0		lat: 40.68267205987635	lng:-73.96577596664429	Category:4bf58dd8d48988d1f2931735
Name:"Emilie Gay Performances"		checkinsCount:0		lat: 40.686535	lng:-73.967882	Category:5032792091d4c4b30a586d5c
Name:"NY Shakespeare Exchange"		checkinsCount:0		lat: 40.683697189820876	lng:-73.9660120010376	Category:4bf58dd8d48988d1f2931735
Query No.:16
Name:"Friends and Lovers"		checkinsCount:767		lat: 40.6786489733459	lng:-73.95870472602498	Category:4bf58dd8d48988d1e5931735
Name:"Kalahari Gallery"		checkinsCount:35		lat: 40.681642645019615	lng:-73.95779208451076	Category:4bf58dd8d48988d1e2931735
Name:"Shoestring Press"		checkinsCount:48		lat: 40.677587	lng:-73.959041	Category:4bf58dd8d48988d1e2931735
Name:"Free Candy"		checkinsCount:1329		lat: 40.68113481003931	lng:-73.96295792294266	Category:4bf58dd8d48988d1f2931735
Name:"Crown Heights Mural"		checkinsCount:4		lat: 40.677367	lng:-73.95831	Category:52e81612bcbc57f1066b79ee
Name:"Art By The Glazz"		checkinsCount:15		lat: 40.68159578178729	lng:-73.95763136731927	Category:4bf58dd8d48988d1e2931735
Name:"Gandalf's Studio"		checkinsCount:32		lat: 40.67821130235587	lng:-73.95760840770957	Category:4bf58dd8d48988d1e2931735
Name:"Brooklyn Urban dZong (BUZ)"		checkinsCount:222		lat: 40.67804932594299	lng:-73.962321	Category:4bf58dd8d48988d1f2931735
Name:"East Side Symphony Pan Yard"		checkinsCount:14		lat: 40.679830423894394	lng:-73.95884822272582	Category:4bf58dd8d48988d1e5931735
Name:"Kalahary Gallery"		checkinsCount:31		lat: 40.681355230978525	lng:-73.95776912492016	Category:4bf58dd8d48988d1e2931735
Name:"Plugs Media Lounge"		checkinsCount:30		lat: 40.680908868095244	lng:-73.96296940242958	Category:4bf58dd8d48988d1f1931735
Name:"Ladies Who Kiki-NYC Branch"		checkinsCount:111		lat: 40.677058	lng:-73.957691	Category:4bf58dd8d48988d1f1931735
Name:"Fountain Studio"		checkinsCount:113		lat: 40.67777372	lng:-73.962429	Category:4bf58dd8d48988d1f4941735
Name:"Bearded Lady Outdoor Corner"		checkinsCount:132		lat: 40.67760127170475	lng:-73.96368686900594	Category:4bf58dd8d48988d182941735
Name:"Red Lotus Room"		checkinsCount:88		lat: 40.67762805468421	lng:-73.95782078399516	Category:4bf58dd8d48988d11a941735
Name:"1103 fulton street"		checkinsCount:53		lat: 40.681804836742984	lng:-73.95767728653048	Category:4bf58dd8d48988d1e2931735
Name:"Couch Kiki"		checkinsCount:38		lat: 40.677003	lng:-73.957618	Category:4bf58dd8d48988d1f1931735
Name:"Ricky's Studio"		checkinsCount:1		lat: 40.677774	lng:-73.962698	Category:507c8c4091d498d9fc8c67a9
Name:"Fountain Studios"		checkinsCount:2		lat: 40.677739	lng:-73.962857	Category:4bf58dd8d48988d1e2931735
Name:"Harlem Camerata Brooklyn"		checkinsCount:11		lat: 40.677351	lng:-73.961687	Category:4bf58dd8d48988d137941735
Name:"The PLACE!"		checkinsCount:3		lat: 40.67911095	lng:-73.96262516666667	Category:4bf58dd8d48988d1f1931735
Name:"Yoshii Gallery"		checkinsCount:2		lat: 40.67808749814513	lng:-73.96352615672484	Category:4bf58dd8d48988d1e2931735
Name:"Wondering Around Wandering"		checkinsCount:83		lat: 40.678349550031946	lng:-73.95749360962006	Category:4bf58dd8d48988d1e2931735
Name:"The Pit (804 Bergen)"		checkinsCount:9		lat: 40.67759289743	lng:-73.96141392572608	Category:4fceea171983d5d06c3e9823
Name:"Stonebrown BBQ Showcase"		checkinsCount:1		lat: 40.681663176779274	lng:-73.95748859363725	Category:4bf58dd8d48988d1e2931735
Name:"USA East Side Symphony Pan Yard"		checkinsCount:1		lat: 40.67900085449219	lng:-73.95796966552734	Category:5032792091d4c4b30a586d5c
Name:"Pupstown Home Office"		checkinsCount:1		lat: 40.679967	lng:-73.963235	Category:4deefb944765f83613cdba6e
Name:"Where Da 42inch Sit"		checkinsCount:126		lat: 40.681167	lng:-73.95957	Category:4bf58dd8d48988d180941735
Name:"TRA Gallery"		checkinsCount:28		lat: 40.681554858495	lng:-73.95797002124526	Category:4bf58dd8d48988d1e2931735
Name:"Synergy Art Gallery"		checkinsCount:24		lat: 40.6818688638662	lng:-73.95780356430502	Category:4bf58dd8d48988d1e2931735
Name:"DANCE PRACTICE WIT THE LIL LEFFERTS GIRLS"		checkinsCount:1		lat: 40.681226	lng:-73.96082	Category:4bf58dd8d48988d134941735
Name:"Simmons Collections African"		checkinsCount:0		lat: 40.6819	lng:-73.959	Category:4bf58dd8d48988d181941735
Name:"Bluehole Studio"		checkinsCount:0		lat: 40.678005	lng:-73.958207	Category:4bf58dd8d48988d1e2931735
Name:"SIC Work Group"		checkinsCount:0		lat: 40.67760313011046	lng:-73.96065831184387	Category:4bf58dd8d48988d1f1931735
Name:"Global Square"		checkinsCount:0		lat: 40.67868529354439	lng:-73.96034717559814	Category:4bf58dd8d48988d1f2931735
Name:"1067 pacific street, new york"		checkinsCount:0		lat: 40.67908398090762	lng:-73.95778298377991	Category:507c8c4091d498d9fc8c67a9
Query No.:17
Name:"Kinz + Tillou Fine Art"		checkinsCount:8		lat: 40.68536224171236	lng:-73.96333674565015	Category:4bf58dd8d48988d1e2931735
Name:"Corridor Gallery"		checkinsCount:142		lat: 40.6863703	lng:-73.962267	Category:4bf58dd8d48988d1e2931735
Name:"The Society of Letters"		checkinsCount:1		lat: 40.685446	lng:-73.959276	Category:4bf58dd8d48988d1e2931735
Name:"Perlorian Bros Shoot"		checkinsCount:3		lat: 40.684292	lng:-73.961857	Category:4bf58dd8d48988d18e941735
Name:"Rocvinc Gallery"		checkinsCount:1		lat: 40.68261797087185	lng:-73.9597952982754	Category:4bf58dd8d48988d1e2931735
Name:"Junglz Ov Da East Studios"		checkinsCount:2		lat: 40.686807	lng:-73.962361	Category:4bf58dd8d48988d1e5931735
Name:"Love Shack"		checkinsCount:14		lat: 40.68611744208081	lng:-73.95913521580741	Category:4bf58dd8d48988d17b941735
Name:"KTF Fine Arts"		checkinsCount:2		lat: 40.68498509371046	lng:-73.96180423102246	Category:4bf58dd8d48988d1e2931735
Name:"House On The Hill"		checkinsCount:33		lat: 40.684878	lng:-73.963755	Category:4bf58dd8d48988d1f1931735
Name:"Studio 5"		checkinsCount:10		lat: 40.68656936162131	lng:-73.95951978586763	Category:4bf58dd8d48988d1f2931735
Name:"Nordstrom Rack"		checkinsCount:6		lat: 40.9136774234476	lng:-73.96158611933654	Category:4bf58dd8d48988d1e1931735
Name:"Al Davis Memorial Service"		checkinsCount:19		lat: 40.68299259507196	lng:-73.96048981739091	Category:4d4b7104d754a06370d81259
Name:"The Grind House"		checkinsCount:363		lat: 40.68490129057146	lng:-73.96371603012085	Category:4bf58dd8d48988d1f1931735
Name:"dopestEthiopian Productions"		checkinsCount:4		lat: 40.68467352304368	lng:-73.95920409408349	Category:4bf58dd8d48988d17e941735
Name:"Val-Blades Studio"		checkinsCount:10		lat: 40.683221852126735	lng:-73.9615975989051	Category:4bf58dd8d48988d1e5931735
Name:"The 50\/50"		checkinsCount:7		lat: 40.683369257875725	lng:-73.96158611933654	Category:4bf58dd8d48988d1e5931735
Name:"Nigel Tufnel Day: 11,11,11"		checkinsCount:4		lat: 40.6847414	lng:-73.96261	Category:4bf58dd8d48988d1e9931735
Name:"421 Classon Ave"		checkinsCount:9		lat: 40.686658	lng:-73.959687	Category:4bf58dd8d48988d135941735
Name:"Shyt & Clip"		checkinsCount:2		lat: 40.68253203139781	lng:-73.96104303631026	Category:4deefb944765f83613cdba6e
Name:"Corner Gallery"		checkinsCount:1		lat: 40.686342	lng:-73.962499	Category:4bf58dd8d48988d1e2931735
Name:"Derek's Dominion"		checkinsCount:2		lat: 40.685359	lng:-73.963272	Category:4bf58dd8d48988d193941735
Name:"Clinton Hill Camp"		checkinsCount:39		lat: 40.685316	lng:-73.958455	Category:4bf58dd8d48988d1f1931735
Name:"Julia's Belly Painting Session"		checkinsCount:0		lat: 40.685231	lng:-73.960352	Category:4d4b7104d754a06370d81259
Name:"Forever12"		checkinsCount:2		lat: 40.683386	lng:-73.96196	Category:4bf58dd8d48988d1f1931735
Name:"Gates Video"		checkinsCount:0		lat: 40.684837	lng:-73.961734	Category:4bf58dd8d48988d17f941735
Name:"Caricaport"		checkinsCount:0		lat: 40.68213508075584	lng:-73.96347999572754	Category:4bf58dd8d48988d1e2931735
Name:"Block Party Filming Location"		checkinsCount:1		lat: 40.685757	lng:-73.961307	Category:4bf58dd8d48988d1f1931735
Name:"Christopher Lovenguth Studio"		checkinsCount:0		lat: 40.6864307925902	lng:-73.96178483963013	Category:4bf58dd8d48988d1f1931735
Query No.:18
Name:"Brooklyn Children's Museum"		checkinsCount:3972		lat: 40.67460805759389	lng:-73.94402732044595	Category:4bf58dd8d48988d181941735
Name:"Zustand von Nico"		checkinsCount:189		lat: 40.67326616354527	lng:-73.95281553268433	Category:4bf58dd8d48988d1e5941735
Name:"Mister Rogers"		checkinsCount:103		lat: 40.66848373413086	lng:-73.95315551757812	Category:4bf58dd8d48988d1e2931735
Name:"AA (Ariella Anonymous)"		checkinsCount:1		lat: 40.671504974365234	lng:-73.9484634399414	Category:4bf58dd8d48988d1f1931735
Name:"Kale Kastle"		checkinsCount:64		lat: 40.67504938827693	lng:-73.94736240953901	Category:4bf58dd8d48988d1e2931735
Name:"Everyday Radio"		checkinsCount:11		lat: 40.673099	lng:-73.953768	Category:4bf58dd8d48988d1f1931735
Name:"The Summit!"		checkinsCount:41		lat: 40.66989516651015	lng:-73.9552435532862	Category:4bf58dd8d48988d1f4931735
Name:"Caribbean Spotlight"		checkinsCount:69		lat: 40.66723798565492	lng:-73.95536409268303	Category:4bf58dd8d48988d1f1931735
Name:"Medgar Evers College Preparatory School"		checkinsCount:97		lat: 40.667081000788805	lng:-73.94806845372787	Category:4bf58dd8d48988d13d941735
Name:"Fort Greene, Baby!"		checkinsCount:24		lat: 40.67581194234851	lng:-73.95302217093521	Category:4deefb944765f83613cdba6e
Name:"Ben's Uhaul"		checkinsCount:33		lat: 40.67677676563912	lng:-73.95361626406626	Category:4bf58dd8d48988d103941735
Name:"Crow Hill Supper Club"		checkinsCount:14		lat: 40.676240594779834	lng:-73.95168473720176	Category:4bf58dd8d48988d1f1931735
Name:"Cat and Lizard Show"		checkinsCount:743		lat: 40.668063189772475	lng:-73.9564489438687	Category:4bf58dd8d48988d17b941735
Name:"Hundred Acre Woods"		checkinsCount:17		lat: 40.673236	lng:-73.951951	Category:4bf58dd8d48988d17b941735
Name:"Rigby's Place"		checkinsCount:42		lat: 40.669393	lng:-73.948411	Category:4bf58dd8d48988d1e1931735
Name:"Crown Kittens"		checkinsCount:28		lat: 40.67158	lng:-73.943738	Category:4bf58dd8d48988d17b941735
Name:"Sportz Kingdom"		checkinsCount:11		lat: 40.66980298174293	lng:-73.95588642919986	Category:4bf58dd8d48988d1f1931735
Name:"@tornado Watch brooklyn!!!"		checkinsCount:2		lat: 40.673059	lng:-73.956979	Category:4bf58dd8d48988d1f1931735
Name:"Brooklyn Museum Visible Storage"		checkinsCount:1		lat: 40.67351	lng:-73.952349	Category:4bf58dd8d48988d181941735
Name:"Blacking It Up!  #TWIBIU"		checkinsCount:44		lat: 40.66812327850214	lng:-73.95058393478394	Category:4bf58dd8d48988d1f1931735
Name:"Phoreal Records Headquarters"		checkinsCount:32		lat: 40.66959727544176	lng:-73.95607584758767	Category:4bf58dd8d48988d1e5931735
Name:"Ma Rooftop"		checkinsCount:27		lat: 40.674033	lng:-73.948724	Category:4deefb944765f83613cdba6e
Name:"Crow Hill Community Mural Project"		checkinsCount:211		lat: 40.6745006160167	lng:-73.95664984156755	Category:4bf58dd8d48988d1e2931735
Name:"The East Garret"		checkinsCount:29		lat: 40.675012	lng:-73.955355	Category:4bf58dd8d48988d1dc931735
Name:"The Lytle Banks"		checkinsCount:4		lat: 40.669591586909945	lng:-73.95225874422982	Category:4bf58dd8d48988d1e8931735
Name:"Babooshka John's"		checkinsCount:1		lat: 40.671849	lng:-73.951292	Category:4bf58dd8d48988d1f2931735
Name:"Studio 643"		checkinsCount:116		lat: 40.675107	lng:-73.955213	Category:4bf58dd8d48988d17b941735
Name:"Casa Di Bella Of Prospect Heights"		checkinsCount:1		lat: 40.673947	lng:-73.95309	Category:4bf58dd8d48988d1f1931735
Name:"Kelso's Crown"		checkinsCount:208		lat: 40.675872	lng:-73.951137	Category:4bf58dd8d48988d137941735
Name:"Port d'Or"		checkinsCount:10		lat: 40.67274649092171	lng:-73.95055967848134	Category:4bf58dd8d48988d1e5931735
Name:"MC In The SFP"		checkinsCount:3		lat: 40.671901	lng:-73.950582	Category:4bf58dd8d48988d18e941735
Name:"Drumhaven"		checkinsCount:3		lat: 40.670494	lng:-73.943155	Category:4bf58dd8d48988d1e5931735
Name:"Ahavas Yisroel Lag Ba'Omer Party"		checkinsCount:3		lat: 40.670129508218835	lng:-73.94816029668493	Category:4bf58dd8d48988d1f2931735
Name:"BluVino Wine & Music Festival"		checkinsCount:2		lat: 40.6744	lng:-73.944	Category:4bf58dd8d48988d1f1931735
Name:"Looo.ch"		checkinsCount:1		lat: 40.67295	lng:-73.945973	Category:4bf58dd8d48988d1e2931735
Name:"Compudio"		checkinsCount:25		lat: 40.6708288192749	lng:-73.94615828990936	Category:4bf58dd8d48988d1e5931735
Name:"Petes Palace..."		checkinsCount:1		lat: 40.67053475	lng:-73.9517233	Category:4d4b7104d754a06370d81259
Name:"MEGA-COOL"		checkinsCount:8		lat: 40.670915	lng:-73.954985	Category:4bf58dd8d48988d1f1931735
Name:"XYEYE"		checkinsCount:11		lat: 40.67346254	lng:-73.95309011	Category:4bf58dd8d48988d1f1931735
Name:"NatCave Studio"		checkinsCount:6		lat: 40.668783	lng:-73.947778	Category:52f2ab2ebcbc57f1066b8b37
Name:"lotterty"		checkinsCount:1		lat: 40.6762824581419	lng:-73.95008898870638	Category:4bf58dd8d48988d17c941735
Name:"Lazer Park"		checkinsCount:71		lat: 40.674268	lng:-73.953882	Category:52e81612bcbc57f1066b79e6
Name:"Casa Di Bella Of Heights Of Prospect"		checkinsCount:0		lat: 40.673864	lng:-73.953	Category:4bf58dd8d48988d1f1931735
Query No.:20
Name:"Slave Theater"		checkinsCount:543		lat: 40.67976215834268	lng:-73.95310253146557	Category:4bf58dd8d48988d137941735
Name:"I Am 30 Shoot"		checkinsCount:3		lat: 40.680319	lng:-73.95524	Category:4bf58dd8d48988d1f2931735
Name:"1260 Atlantic Avenue"		checkinsCount:170		lat: 40.67829662172932	lng:-73.95041617562262	Category:4bf58dd8d48988d1e5931735
Name:"Crooklyn Stoop"		checkinsCount:3		lat: 40.68144607543945	lng:-73.9513931274414	Category:4deefb944765f83613cdba6e
Name:"Olivia"		checkinsCount:62		lat: 40.6795414	lng:-73.9557671	Category:4bf58dd8d48988d1e5931735
Name:"Marchmadnesscopalypse"		checkinsCount:12		lat: 40.6799555927285	lng:-73.9521554230906	Category:4bf58dd8d48988d1f1931735
Name:"ScandalApocolypseABC"		checkinsCount:29		lat: 40.68148229249411	lng:-73.95510579388342	Category:4bf58dd8d48988d1f1931735
Name:"Platform Genius!"		checkinsCount:1		lat: 40.681205	lng:-73.956429	Category:4bf58dd8d48988d1e1931735
Name:"Cosmic Mirrors"		checkinsCount:1		lat: 40.678321	lng:-73.950475	Category:4bf58dd8d48988d1e5931735
Name:"Estudio de Marela"		checkinsCount:1		lat: 40.678537	lng:-73.952102	Category:4bf58dd8d48988d1e2931735
Name:"GoBrooklynArt"		checkinsCount:2		lat: 40.677143	lng:-73.956498	Category:4bf58dd8d48988d1e2931735
Name:"NYCthemovie production hub"		checkinsCount:3		lat: 40.68178551564081	lng:-73.95550185190154	Category:4bf58dd8d48988d1f1931735
Name:"Gye Nyame Dance Dimensions"		checkinsCount:2		lat: 40.67963594102849	lng:-73.95162733640518	Category:4bf58dd8d48988d134941735
Name:"Juicy Juices"		checkinsCount:2		lat: 40.6788330078125	lng:-73.95067596435547	Category:4bf58dd8d48988d1e1931735
Name:"1227 Bedford"		checkinsCount:3		lat: 40.68105198794002	lng:-73.95374303777912	Category:4bf58dd8d48988d134941735
Name:"SEEK-ART"		checkinsCount:2		lat: 40.681019	lng:-73.950621	Category:4deefb944765f83613cdba6e
Name:"The Rising Star Gallery"		checkinsCount:7		lat: 40.68072	lng:-73.95656	Category:4bf58dd8d48988d1e2931735
Name:"New York Inflatables Inc"		checkinsCount:0		lat: 40.6801498476598	lng:-73.95586252212524	Category:4bf58dd8d48988d1f1931735
Name:"Gye Nyame Dane Dimension"		checkinsCount:0		lat: 40.67958068847656	lng:-73.95074462890625	Category:4bf58dd8d48988d134941735
Query No.:21
Name:"ODB Mural"		checkinsCount:886		lat: 40.683250017495986	lng:-73.95631692526705	Category:52e81612bcbc57f1066b79ee
Name:"The Phallus Palace"		checkinsCount:22		lat: 40.684375894444656	lng:-73.95491637454415	Category:4fceea171983d5d06c3e9823
Name:"Strongbadia"		checkinsCount:47		lat: 40.68255815557589	lng:-73.9500904083252	Category:4bf58dd8d48988d12c951735
Name:"YoGa Toilet"		checkinsCount:11		lat: 40.682876552442806	lng:-73.95441125539793	Category:4deefb944765f83613cdba6e
Name:"The Jazz Club"		checkinsCount:10		lat: 40.68416654403854	lng:-73.95552481176175	Category:4bf58dd8d48988d1e7931735
Name:"Sistas' Place"		checkinsCount:19		lat: 40.683508782290694	lng:-73.95012916958558	Category:4bf58dd8d48988d1f2931735
Name:"Akbar Hall"		checkinsCount:2		lat: 40.684096	lng:-73.954191	Category:4bf58dd8d48988d1f1931735
Name:"The Knickerbocker Hospital"		checkinsCount:5		lat: 40.684795	lng:-73.95061	Category:4deefb944765f83613cdba6e
Name:"Babes of Betsy"		checkinsCount:1		lat: 40.68666822845615	lng:-73.95361626406626	Category:4bf58dd8d48988d103941735
Name:"Zack's House Of Australian Hoarding"		checkinsCount:3		lat: 40.68569385072235	lng:-73.95338953308688	Category:4bf58dd8d48988d1f1931735
Name:"ReshmasRockinRager"		checkinsCount:3		lat: 40.6836422633872	lng:-73.95660392211195	Category:4fceea171983d5d06c3e9823
Name:"Rainbow Cloud Château"		checkinsCount:27		lat: 40.68306258742861	lng:-73.95498275756836	Category:4deefb944765f83613cdba6e
Name:"DJ Blazita's studio"		checkinsCount:23		lat: 40.68331775153382	lng:-73.95344693335997	Category:4bf58dd8d48988d1e5931735
Name:"Spread The Love Fest"		checkinsCount:1		lat: 40.682692818295905	lng:-73.95019805107333	Category:4bf58dd8d48988d1f1931735
Name:"Huck Finn And The Five Boons"		checkinsCount:2		lat: 40.68316161632538	lng:-73.95030498504639	Category:4bf58dd8d48988d135941735
Name:"Folukie"		checkinsCount:1		lat: 40.68432	lng:-73.9547	Category:4bf58dd8d48988d144941735
Name:"The Skinniest Building in New York"		checkinsCount:0		lat: 40.68482400097392	lng:-73.9541157335043	Category:4deefb944765f83613cdba6e
Query No.:22
Name:"Breukelen Cellars"		checkinsCount:846		lat: 40.68162946011182	lng:-73.9498134624527	Category:4bf58dd8d48988d119951735
Name:"The Kymberle Project"		checkinsCount:12		lat: 40.678046	lng:-73.948286	Category:4bf58dd8d48988d1f1931735
Name:"42 Macon"		checkinsCount:9		lat: 40.68096321921226	lng:-73.949314070117	Category:4bf58dd8d48988d1e1931735
Name:"Explode Studio"		checkinsCount:12		lat: 40.680119	lng:-73.94738	Category:4bf58dd8d48988d1f2931735
Name:"The Brain Store"		checkinsCount:7		lat: 40.680907	lng:-73.949809	Category:4bf58dd8d48988d1f1931735
Name:"Designs Unlimited Ii"		checkinsCount:1		lat: 40.678919	lng:-73.944026	Category:4bf58dd8d48988d1e2931735
Name:"Jones Beach"		checkinsCount:0		lat: 40.67971048480372	lng:-73.94453287124634	Category:4bf58dd8d48988d1e1931735
Name:"The Glass Wall"		checkinsCount:20		lat: 40.678038	lng:-73.944617	Category:4bf58dd8d48988d1f2931735
Name:"Skylight Gallery"		checkinsCount:40		lat: 40.68032891253507	lng:-73.94568626179357	Category:4bf58dd8d48988d1e2931735
Name:"Studio Thirteen Ninety-Five"		checkinsCount:7		lat: 40.67753481379369	lng:-73.9451064949808	Category:4bf58dd8d48988d1e2931735
Name:"The Billie Holiday Theatre"		checkinsCount:178		lat: 40.680193	lng:-73.945862	Category:4bf58dd8d48988d137941735
Name:"Street Poets NYC"		checkinsCount:4		lat: 40.678534	lng:-73.948684	Category:4bf58dd8d48988d1f1931735
Name:"NYCR - HQ"		checkinsCount:15		lat: 40.678467	lng:-73.9486312866211	Category:4bf58dd8d48988d1f1931735
Name:"Natural freaks mass camp"		checkinsCount:25		lat: 40.67862798984405	lng:-73.94970439986878	Category:4d4b7104d754a06370d81259
Name:"Gebo House"		checkinsCount:90		lat: 40.678507441985474	lng:-73.9487515346768	Category:4bf58dd8d48988d1e2931735
Name:"Street Poets"		checkinsCount:2		lat: 40.678698	lng:-73.948724	Category:4bf58dd8d48988d1f1931735
Name:"Pinion Gallery"		checkinsCount:170		lat: 40.678658	lng:-73.948815	Category:4bf58dd8d48988d1e2931735
Name:"Reinheitsgebot day Everywhere"		checkinsCount:2		lat: 40.681696	lng:-73.9451	Category:4bf58dd8d48988d1f1931735
Name:"brooklyn philharmonic"		checkinsCount:30		lat: 40.67969913417702	lng:-73.94575514486377	Category:4bf58dd8d48988d1f2931735
Name:"Blockboyz Studios"		checkinsCount:2		lat: 40.678637	lng:-73.948805	Category:4bf58dd8d48988d1e5931735
Name:"Game Rebellion Headquarters"		checkinsCount:6		lat: 40.678641392141714	lng:-73.94938869204223	Category:4bf58dd8d48988d17b941735
Name:"Superfront"		checkinsCount:7		lat: 40.67817807197571	lng:-73.9446884393692	Category:4bf58dd8d48988d1e1931735
Name:"echoBOOM Studios"		checkinsCount:5		lat: 40.67829072475433	lng:-73.94838988780975	Category:4bf58dd8d48988d1f1931735
Name:"Platinum Professionals"		checkinsCount:1		lat: 40.68192	lng:-73.94981	Category:4bf58dd8d48988d1e1931735
Name:"Wallis Communications"		checkinsCount:0		lat: 40.677287834827844	lng:-73.94583374261856	Category:4bf58dd8d48988d1e5931735
Name:"Redbox"		checkinsCount:15		lat: 40.67810130817715	lng:-73.94422249075441	Category:4bf58dd8d48988d126951735
Name:"TOPMICS RADIO"		checkinsCount:0		lat: 40.680378	lng:-73.949447	Category:4bf58dd8d48988d1e5931735
Name:"Demba Wassa Video"		checkinsCount:0		lat: 40.680553	lng:-73.943528	Category:4bf58dd8d48988d17f941735
Name:"Frank's Basement"		checkinsCount:0		lat: 40.6781784	lng:-73.9441579	Category:4bf58dd8d48988d1e5931735
Name:"BEAT Festival @Restoration Plaza"		checkinsCount:0		lat: 40.680044075385034	lng:-73.94548773765564	Category:4bf58dd8d48988d1f2931735
Query No.:23
Name:"American Medium"		checkinsCount:30		lat: 40.686279	lng:-73.94924	Category:4bf58dd8d48988d1e2931735
Name:"Bed-Stuy Crawl: Afternoon Delight"		checkinsCount:6		lat: 40.684503	lng:-73.944562	Category:4bf58dd8d48988d1f1931735
Name:"Chotch Brownstone"		checkinsCount:53		lat: 40.6838263268594	lng:-73.94472189623573	Category:4deefb944765f83613cdba6e
Name:"Porlock"		checkinsCount:10		lat: 40.682569946411704	lng:-73.94902132228604	Category:4bf58dd8d48988d18e941735
Name:"The Loft"		checkinsCount:27		lat: 40.68566248561608	lng:-73.94474485737629	Category:4bf58dd8d48988d1f1931735
Name:"the angel den"		checkinsCount:2		lat: 40.68464908208014	lng:-73.94517660140991	Category:4bf58dd8d48988d1e2931735
Name:"bowling station"		checkinsCount:24		lat: 40.685352316273224	lng:-73.94392399490886	Category:4bf58dd8d48988d1e4931735
Name:"Kaycie's Apt"		checkinsCount:7		lat: 40.682316915319646	lng:-73.9497962420488	Category:4fceea171983d5d06c3e9823
Name:"Forthelovers Studios"		checkinsCount:55		lat: 40.685399	lng:-73.94921	Category:4bf58dd8d48988d1e5931735
Name:"The Poetry Club Art Space"		checkinsCount:135		lat: 40.684346	lng:-73.94912	Category:4bf58dd8d48988d1e2931735
Name:"247 Hanover Street"		checkinsCount:1		lat: 40.683254	lng:-73.946257	Category:4deefb944765f83613cdba6e
Name:"Harmonium Films & Music"		checkinsCount:6		lat: 40.68646454148542	lng:-73.94653007771362	Category:5032792091d4c4b30a586d5c
Name:"Axel Land"		checkinsCount:4		lat: 40.682851	lng:-73.948343	Category:4bf58dd8d48988d18e941735
Name:"Tables and Chairs Final Shoot"		checkinsCount:1		lat: 40.68482202	lng:-73.94479122	Category:4d4b7104d754a06370d81259
Name:"Armstrong Community Center (NYCHA)"		checkinsCount:0		lat: 40.68669112986353	lng:-73.94689321517944	Category:4bf58dd8d48988d1f1931735
Name:"Raven Entertainment Group"		checkinsCount:0		lat: 40.683305	lng:-73.943964	Category:5032792091d4c4b30a586d5c
Query No.:25
Name:"Boom Mas Camp"		checkinsCount:2		lat: 40.65153570767926	lng:-73.94155323271225	Category:4bf58dd8d48988d1f1931735
Name:"Wondering How Many Check In's Today"		checkinsCount:182		lat: 40.65064521213425	lng:-73.93901596837418	Category:4bf58dd8d48988d1f1931735
Name:"Rose Garden Catering Hall"		checkinsCount:132		lat: 40.651361	lng:-73.937472	Category:4bf58dd8d48988d1f1931735
Name:"Loyal Rebellion HQ"		checkinsCount:59		lat: 40.651373603507274	lng:-73.937087059021	Category:4bf58dd8d48988d130941735
Name:"Showoff Radio"		checkinsCount:15		lat: 40.653298	lng:-73.930369	Category:4bf58dd8d48988d1e5931735
Name:"TNT Mask Camp"		checkinsCount:3		lat: 40.65302276611328	lng:-73.94287109375	Category:4bf58dd8d48988d1e5931735
Name:"Brooklyn Beats"		checkinsCount:4		lat: 40.65158618528983	lng:-73.93304580357288	Category:4bf58dd8d48988d1e5931735
Name:"Purpose Publishing Studio"		checkinsCount:2		lat: 40.64957046508789	lng:-73.93314361572266	Category:4bf58dd8d48988d1e5931735
Name:"Swavorland Entertainment"		checkinsCount:41		lat: 40.653299808423206	lng:-73.93430873838403	Category:4bf58dd8d48988d1f1931735
Name:"CASYM Panyard"		checkinsCount:5		lat: 40.651617	lng:-73.94244611263275	Category:4bf58dd8d48988d1e5931735
Name:"DeeJay Moe Sabra's Studio"		checkinsCount:11		lat: 40.65207635363424	lng:-73.94288499616421	Category:4bf58dd8d48988d1f1931735
Name:"La Que Buena"		checkinsCount:6		lat: 40.653381	lng:-73.94286	Category:4bf58dd8d48988d1e5931735
Query No.:26
Name:"Three Star Juice Lounge"		checkinsCount:424		lat: 40.661365547848746	lng:-73.93167378779843	Category:4bf58dd8d48988d112941735
Name:"Brooklyn's Finest Pole Dancing Studio"		checkinsCount:46		lat: 40.6663448068289	lng:-73.93863709799653	Category:4bf58dd8d48988d134941735
Name:"Simchat Beis Hashoeva"		checkinsCount:34		lat: 40.66531902267678	lng:-73.94240854736101	Category:4bf58dd8d48988d1e5931735
Name:"The Creative Soul"		checkinsCount:2		lat: 40.664458	lng:-73.942525	Category:4bf58dd8d48988d1e2931735
Name:"Falcon Nest MDLXXX"		checkinsCount:4		lat: 40.66614063330019	lng:-73.93645570868266	Category:4fceea171983d5d06c3e9823
Name:"Broooklyn's Finest Pole Dance"		checkinsCount:37		lat: 40.666335	lng:-73.938593	Category:4bf58dd8d48988d1f1931735
Name:"Outdoor Gallery"		checkinsCount:3		lat: 40.65829077969418	lng:-73.93034194730454	Category:4bf58dd8d48988d1e2931735
Name:"Lag B'Omer"		checkinsCount:4		lat: 40.65879544356942	lng:-73.94272426657854	Category:4bf58dd8d48988d1f1931735
Name:"Jewish Children's Museum"		checkinsCount:1		lat: 40.664828	lng:-73.942629	Category:4bf58dd8d48988d181941735
Name:"Simchas Beis HaShoeivah"		checkinsCount:14		lat: 40.66234904016584	lng:-73.94278741036027	Category:4bf58dd8d48988d1e5931735
Name:"Mixtape Factory"		checkinsCount:10		lat: 40.662983	lng:-73.929098	Category:4bf58dd8d48988d1e5931735
Name:"Arts & Gallery"		checkinsCount:3		lat: 40.65829077969418	lng:-73.9308700920426	Category:4bf58dd8d48988d1e2931735
Name:"Don Corp Imprintables & Designs"		checkinsCount:1		lat: 40.659095764160156	lng:-73.93537902832031	Category:4d4b7104d754a06370d81259
Name:"Off-Track Betting"		checkinsCount:9		lat: 40.66246569156647	lng:-73.930675	Category:4bf58dd8d48988d1f4931735
Name:"39-06 crescent long island city, ny 11101"		checkinsCount:5		lat: 40.666018	lng:-73.931796	Category:4bf58dd8d48988d1f1931735
Name:"Van 5443"		checkinsCount:1		lat: 40.657201	lng:-73.937731	Category:4bf58dd8d48988d1f1931735
Name:"Gallery Gallery"		checkinsCount:39		lat: 40.65829086303711	lng:-73.93140411376953	Category:4bf58dd8d48988d1e2931735
Name:"Bklyn Gallery"		checkinsCount:0		lat: 40.658504486083984	lng:-73.93087005615234	Category:4bf58dd8d48988d1e2931735
Name:"trade house"		checkinsCount:0		lat: 40.66075134277344	lng:-73.93745422363281	Category:4bf58dd8d48988d1f1931735
Name:"trade house"		checkinsCount:0		lat: 40.660709381103516	lng:-73.93740844726562	Category:4bf58dd8d48988d1f1931735
Name:"Storing Gallery"		checkinsCount:0		lat: 40.65871810913086	lng:-73.93034362792969	Category:4bf58dd8d48988d1e2931735
Name:"Jimmy Lu Gallery"		checkinsCount:0		lat: 40.65829086303711	lng:-73.93140411376953	Category:4bf58dd8d48988d1e2931735
Name:"Mega Gallery"		checkinsCount:0		lat: 40.658504486083984	lng:-73.93087005615234	Category:4bf58dd8d48988d1e2931735
Name:"Tony Gallery"		checkinsCount:0		lat: 40.65871810913086	lng:-73.93034362792969	Category:4bf58dd8d48988d1e2931735
Name:"Sing Gallery"		checkinsCount:0		lat: 40.6585033	lng:-73.93087080000001	Category:4bf58dd8d48988d1e2931735
Name:"Modern Gallery"		checkinsCount:0		lat: 40.658504486083984	lng:-73.93087005615234	Category:4bf58dd8d48988d1e2931735
Name:"Gallery Of Zoom"		checkinsCount:0		lat: 40.65829086303711	lng:-73.93140411376953	Category:4bf58dd8d48988d1e2931735
Name:"Moe's Gallery"		checkinsCount:0		lat: 40.6582895	lng:-73.9314016	Category:4bf58dd8d48988d1e2931735
Query No.:27
Name:"Coo-Coos Nest"		checkinsCount:4		lat: 40.65678405761719	lng:-73.9228515625	Category:4bf58dd8d48988d1e5931735
Name:"Remsen Hall"		checkinsCount:151		lat: 40.65626833715598	lng:-73.92376872135908	Category:4bf58dd8d48988d171941735
Name:"Jackie Robinson Residence 1947-49"		checkinsCount:78		lat: 40.64819899283776	lng:-73.92721652984619	Category:4deefb944765f83613cdba6e
Name:"Karma Mas Camp on Clarkson"		checkinsCount:1		lat: 40.65679168701172	lng:-73.92691802978516	Category:4bf58dd8d48988d1e5931735
Name:"Nba 2k14"		checkinsCount:15		lat: 40.656941335813926	lng:-73.92024377319797	Category:4bf58dd8d48988d1e1931735
Name:"Lg"		checkinsCount:8		lat: 40.656934	lng:-73.920251	Category:4bf58dd8d48988d192941735
Name:"Joe's Music Center"		checkinsCount:39		lat: 40.65255817	lng:-73.92320015	Category:4bf58dd8d48988d134941735
Name:"Masterpiece Video Productions"		checkinsCount:15		lat: 40.654421393044665	lng:-73.91722971959959	Category:4bf58dd8d48988d1f1931735
Name:"John Cage's Waltz 27.2"		checkinsCount:0		lat: 40.65432015825763	lng:-73.92242074012756	Category:507c8c4091d498d9fc8c67a9
Name:"K.B. Art"		checkinsCount:0		lat: 40.650869	lng:-73.921651	Category:4bf58dd8d48988d1e2931735
Query No.:28
Name:"The 90's"		checkinsCount:67		lat: 40.66186448434088	lng:-73.92473893202437	Category:4bf58dd8d48988d162941735
Name:"The 90s"		checkinsCount:1507		lat: 40.65957805144906	lng:-73.92245292663574	Category:4bf58dd8d48988d1f1931735
Name:"Houstatlantavegas"		checkinsCount:3		lat: 40.66385	lng:-73.920652	Category:4bf58dd8d48988d1f1931735
Name:"PS 156 Waverly School of the Arts"		checkinsCount:138		lat: 40.66567683356609	lng:-73.91771197131452	Category:4bf58dd8d48988d13b941735
Name:"Nik's Studio "		checkinsCount:15		lat: 40.662066028018	lng:-73.92375149864078	Category:4bf58dd8d48988d1e5931735
Name:"The man cave"		checkinsCount:0		lat: 40.66186359728481	lng:-73.91834636014222	Category:4bf58dd8d48988d103941735
Name:"Aunt DD Spot"		checkinsCount:0		lat: 40.664631	lng:-73.924099	Category:4bf58dd8d48988d17b941735
Query No.:30
Name:"Jewish Children's Museum"		checkinsCount:799		lat: 40.66916374885466	lng:-73.94222485594298	Category:4bf58dd8d48988d181941735
Name:"The Bickley Hub"		checkinsCount:10		lat: 40.675716	lng:-73.929604	Category:4bf58dd8d48988d17b941735
Name:"The Love below"		checkinsCount:4		lat: 40.672104	lng:-73.930841	Category:5032792091d4c4b30a586d5c
Name:"Indianapolis 500"		checkinsCount:14		lat: 40.669464702395096	lng:-73.94182877072978	Category:4bf58dd8d48988d1f4931735
Name:"House Of Eternal Beans"		checkinsCount:1		lat: 40.676514	lng:-73.94275	Category:4bf58dd8d48988d17e941735
Name:"Monster Headquarters"		checkinsCount:368		lat: 40.67006345703767	lng:-73.93506649532222	Category:4bf58dd8d48988d17b941735
Name:"Stratosphere Studios"		checkinsCount:11		lat: 40.67060699359443	lng:-73.93057157562816	Category:4bf58dd8d48988d1e5931735
Name:"Gates Of Richeousness"		checkinsCount:6		lat: 40.673077	lng:-73.941597	Category:4deefb944765f83613cdba6e
Name:"The Maxipad 2.0"		checkinsCount:1		lat: 40.672582	lng:-73.933519	Category:4bf58dd8d48988d134941735
Name:"Social Networking"		checkinsCount:61		lat: 40.669472	lng:-73.933032	Category:4bf58dd8d48988d1f1931735
Name:"james e davis multicultral musuem of peace"		checkinsCount:3		lat: 40.66832733154297	lng:-73.9404525756836	Category:4deefb944765f83613cdba6e
Name:"Studio 211"		checkinsCount:2		lat: 40.673537	lng:-73.932031	Category:507c8c4091d498d9fc8c67a9
Name:"BREAKING NEWS"		checkinsCount:26		lat: 40.67031794354488	lng:-73.93936613579156	Category:4bf58dd8d48988d1e5931735
Name:"Albany Community Center (NYCHA)"		checkinsCount:5		lat: 40.67386831085318	lng:-73.93610000610352	Category:4bf58dd8d48988d1f1931735
Name:"The Limestone"		checkinsCount:94		lat: 40.672641485750916	lng:-73.93492872155375	Category:4deefb944765f83613cdba6e
Name:"Dekalb Market"		checkinsCount:6		lat: 40.67036454416155	lng:-73.94247743159785	Category:4bf58dd8d48988d1f1931735
Name:"Watching tv"		checkinsCount:18		lat: 40.66918994363822	lng:-73.93164508443591	Category:4bf58dd8d48988d1f1931735
Name:"Concrete Utopia\/ Shoestring Press"		checkinsCount:2		lat: 40.67144	lng:-73.940707	Category:4bf58dd8d48988d1e2931735
Name:"The Sakhu Healing Arts Center"		checkinsCount:7		lat: 40.67667671934943	lng:-73.94127769430264	Category:4bf58dd8d48988d1f2931735
Name:"Le Crib"		checkinsCount:97		lat: 40.67552402	lng:-73.92989111	Category:4bf58dd8d48988d18e941735
Name:"St Jones Video Store"		checkinsCount:0		lat: 40.670992	lng:-73.940604	Category:4bf58dd8d48988d17f941735
Name:"770 Through Yossi's Lens"		checkinsCount:0		lat: 40.66976547241211	lng:-73.93990325927734	Category:4bf58dd8d48988d1e2931735
Name:"THE PAIN CLINIC"		checkinsCount:1		lat: 40.66917037963867	lng:-73.93755340576172	Category:4bf58dd8d48988d1e2931735
Query No.:31
Name:"Essence Bar & Restaurant"		checkinsCount:2371		lat: 40.67748108050053	lng:-73.93554210662842	Category:4bf58dd8d48988d116941735
Name:"House Of Art Gallery"		checkinsCount:57		lat: 40.68289443224376	lng:-73.93820656257712	Category:4bf58dd8d48988d1e2931735
Name:"Angelica Movie theatre"		checkinsCount:6		lat: 40.68492374462048	lng:-73.93366005016753	Category:4bf58dd8d48988d17e941735
Name:"Nowhere Studios"		checkinsCount:9		lat: 40.6775499	lng:-73.939119	Category:4bf58dd8d48988d1e5931735
Name:"TraxStudios"		checkinsCount:6		lat: 40.683386	lng:-73.935939	Category:4bf58dd8d48988d1e5931735
Name:"House Of arts"		checkinsCount:13		lat: 40.684568149345836	lng:-73.93821804353405	Category:4bf58dd8d48988d1e2931735
Name:"SarHara Wesert"		checkinsCount:8		lat: 40.683966	lng:-73.937455	Category:52e81612bcbc57f1066b79ef
Name:"Tom's"		checkinsCount:41		lat: 40.682418803645355	lng:-73.94247169124571	Category:4bf58dd8d48988d1f1931735
Name:"Bed Stuy Bedroom"		checkinsCount:201		lat: 40.68598824965027	lng:-73.93802860765764	Category:4bf58dd8d48988d1f1931735
Name:"Rauch Brothers Animation"		checkinsCount:25		lat: 40.68497965472511	lng:-73.92959437114555	Category:4bf58dd8d48988d1e1931735
Name:"The Zodiac Palace"		checkinsCount:22		lat: 40.682909211565146	lng:-73.93802860765764	Category:4deefb944765f83613cdba6e
Name:"T Gallery"		checkinsCount:22		lat: 40.7295713761289	lng:-73.93577258434878	Category:4bf58dd8d48988d1e2931735
Name:"The Muffet Show"		checkinsCount:1		lat: 40.6853981035034	lng:-73.93018120731631	Category:4bf58dd8d48988d17f941735
Name:"81, Greene St, New York, Soho. Mimi Fertz Galery"		checkinsCount:5		lat: 40.68282141661969	lng:-73.93413077988578	Category:507c8c4091d498d9fc8c67a9
Name:"1501 Broadway, Brooklyn"		checkinsCount:8		lat: 40.677674	lng:-73.934921	Category:4bf58dd8d48988d1e2931735
Name:"Mixcloud.com\/octane31"		checkinsCount:4		lat: 40.684549	lng:-73.933163	Category:4bf58dd8d48988d1e5931735
Name:"Vanity Gallery, Inc. Antiques"		checkinsCount:26		lat: 40.679015	lng:-73.93841231666667	Category:4bf58dd8d48988d1e2931735
Name:"Golden Pizza"		checkinsCount:28		lat: 40.68462294847495	lng:-73.92996305997644	Category:4bf58dd8d48988d1e1931735
Name:"House of Art Gallery"		checkinsCount:327		lat: 40.681663186442336	lng:-73.93457651138306	Category:4bf58dd8d48988d1e2931735
Name:"Wangechi Mutu Brooklyn Studio"		checkinsCount:3		lat: 40.68593879966089	lng:-73.93716753315793	Category:4bf58dd8d48988d1e2931735
Name:"Nagasaki"		checkinsCount:2		lat: 40.68474468104025	lng:-73.93023861447024	Category:4bf58dd8d48988d1e5931735
Name:"NYRP's Garden of Hope"		checkinsCount:3		lat: 40.68400635290003	lng:-73.94013404846191	Category:4bf58dd8d48988d1f1931735
Name:"Three's Company"		checkinsCount:6		lat: 40.68571605815305	lng:-73.9372651217935	Category:507c8c4091d498d9fc8c67a9
Name:"Studio"		checkinsCount:5		lat: 40.67914	lng:-73.933891	Category:4bf58dd8d48988d1e5931735
Name:"Footage Swopping"		checkinsCount:3		lat: 40.680111751096526	lng:-73.93890689970505	Category:4bf58dd8d48988d137941735
Name:"Grenada Day at St. Andrew Park"		checkinsCount:1		lat: 40.67879	lng:-73.93973	Category:4bf58dd8d48988d1f1931735
Name:"The Tube"		checkinsCount:4		lat: 40.678931	lng:-73.933759	Category:4bf58dd8d48988d17f941735
Name:"Fulton Park Art Fair"		checkinsCount:2		lat: 40.679556	lng:-73.932132	Category:4bf58dd8d48988d1e2931735
Name:"Stylist Nails"		checkinsCount:2		lat: 40.680099841433545	lng:-73.94290221718333	Category:4f04aa0c2fb6e1c99f3db0b8
Name:"Weecreatebk"		checkinsCount:136		lat: 40.682444847008156	lng:-73.9312145334885	Category:4bf58dd8d48988d1e2931735
Name:"The Getaway"		checkinsCount:7		lat: 40.683189	lng:-73.941348	Category:4bf58dd8d48988d18e941735
Name:"Romajana Inc. Studios"		checkinsCount:9		lat: 40.68125809147443	lng:-73.93930873134029	Category:4bf58dd8d48988d1e5931735
Name:"Lewis Avenue Streetfest"		checkinsCount:6		lat: 40.68155082137455	lng:-73.93428003541149	Category:4bf58dd8d48988d1f1931735
Name:"Casa De Kahjah"		checkinsCount:6		lat: 40.68499608789172	lng:-73.94186034276925	Category:4bf58dd8d48988d103941735
Name:"Wayne Clarke's Place"		checkinsCount:5		lat: 40.68483701458711	lng:-73.9383500744899	Category:4bf58dd8d48988d1e2931735
Name:"Brooklynite Gallery"		checkinsCount:188		lat: 40.681437	lng:-73.92910745	Category:4bf58dd8d48988d1e2931735
Name:"Zion Gallery"		checkinsCount:9		lat: 40.68136368910248	lng:-73.94176562663539	Category:4bf58dd8d48988d1e2931735
Name:"Afro Art Designs"		checkinsCount:15		lat: 40.683901	lng:-73.933501	Category:4bf58dd8d48988d1e2931735
Name:"Villa del Scapolo"		checkinsCount:10		lat: 40.682031	lng:-73.935134	Category:4bf58dd8d48988d1f1931735
Name:"Roof Top"		checkinsCount:2		lat: 40.682169	lng:-73.935241	Category:4d4b7104d754a06370d81259
Name:"Top Shelf Studios"		checkinsCount:84		lat: 40.67713698000001	lng:-73.941949	Category:4bf58dd8d48988d1e5931735
Name:"DJ Trauma"		checkinsCount:0		lat: 40.67860392848344	lng:-73.9428162574768	Category:4bf58dd8d48988d1e5931735
Name:"Carbon-Fibre Media"		checkinsCount:0		lat: 40.68221237347153	lng:-73.94017159938812	Category:4bf58dd8d48988d1f1931735
Query No.:32
Name:"Weeksville Heritage"		checkinsCount:333		lat: 40.67446218140215	lng:-73.92550820804223	Category:4bf58dd8d48988d190941735
Name:"Family Dollar"		checkinsCount:165		lat: 40.676689851377375	lng:-73.92082935533364	Category:4bf58dd8d48988d1e1931735
Name:"WeAreSuperHeros Studio"		checkinsCount:48		lat: 40.67530263452864	lng:-73.91785549837974	Category:4bf58dd8d48988d1e5931735
Name:"Hangout"		checkinsCount:34		lat: 40.6740145847908	lng:-73.92519246079162	Category:4bf58dd8d48988d1f1931735
Name:"DRCH"		checkinsCount:3		lat: 40.67073101715659	lng:-73.92323481638175	Category:4bf58dd8d48988d1f1931735
Name:"The House of Proxima"		checkinsCount:6		lat: 40.670369270757256	lng:-73.92775297164917	Category:4bf58dd8d48988d1f1931735
Name:"Wheatsville Garden Party"		checkinsCount:1		lat: 40.674306	lng:-73.926269	Category:4bf58dd8d48988d1e5931735
Name:"dsk body care v.i.p."		checkinsCount:1		lat: 40.669010162353516	lng:-73.91545104980469	Category:4bf58dd8d48988d1f1931735
Name:"Goodfellaz Hide Out"		checkinsCount:10		lat: 40.67551687886431	lng:-73.92329222558949	Category:4bf58dd8d48988d18e941735
Name:"Its Party Time"		checkinsCount:0		lat: 40.67035706448203	lng:-73.91967952251434	Category:4bf58dd8d48988d1e5931735
Query No.:33
Name:"haus of whatever"		checkinsCount:35		lat: 40.681404012838215	lng:-73.9279021295854	Category:52e81612bcbc57f1066b79e7
Name:"The Shop by Drive By Press"		checkinsCount:3		lat: 40.682048	lng:-73.919653	Category:4bf58dd8d48988d1e2931735
Name:"Bedford Stuyvesant Multiservice Center"		checkinsCount:30		lat: 40.67874225697286	lng:-73.92020932713505	Category:4bf58dd8d48988d130941735
Name:"Asase Yaya Cultural Arts Foundation"		checkinsCount:5		lat: 40.679512	lng:-73.927077	Category:4bf58dd8d48988d134941735
Name:"new brooklyn theater"		checkinsCount:5		lat: 40.677120303458615	lng:-73.92831546556859	Category:4bf58dd8d48988d17e941735
Name:"UAEP"		checkinsCount:4		lat: 40.682507	lng:-73.918357	Category:4bf58dd8d48988d1f1931735
Name:"b3tamax bistro"		checkinsCount:3		lat: 40.683028	lng:-73.922798	Category:4bf58dd8d48988d1f1931735
Name:"Decatur Video"		checkinsCount:1		lat: 40.683941	lng:-73.917439	Category:4bf58dd8d48988d17f941735
Name:"Dia:Macon"		checkinsCount:16		lat: 40.684179349720075	lng:-73.92538765006168	Category:4bf58dd8d48988d18f941735
Name:"scarlits"		checkinsCount:1		lat: 40.67828369140625	lng:-73.92317199707031	Category:4bf58dd8d48988d1e2931735
Name:"wicked smart taz"		checkinsCount:164		lat: 40.685876	lng:-73.915266	Category:4bf58dd8d48988d162941735
Name:"Trap House"		checkinsCount:9		lat: 40.68332256932383	lng:-73.93010370763155	Category:4bf58dd8d48988d103941735
Name:"My Only Cut Spot"		checkinsCount:14		lat: 40.68171732218891	lng:-73.91905538050072	Category:4deefb944765f83613cdba6e
Name:"The Basement"		checkinsCount:51		lat: 40.68332256932383	lng:-73.93010370763155	Category:4bf58dd8d48988d103941735
Name:"Kustom Journey"		checkinsCount:1		lat: 40.68535422857026	lng:-73.9203471113501	Category:4bf58dd8d48988d1e2931735
Name:"The Room @ City Cinemas Village East"		checkinsCount:6		lat: 40.68589401245117	lng:-73.91516876220703	Category:4bf58dd8d48988d17e941735
Name:"Agape summer  camp"		checkinsCount:25		lat: 40.67827	lng:-73.918624	Category:4bf58dd8d48988d1f1931735
Name:"Mac Street"		checkinsCount:2		lat: 40.683948	lng:-73.91895	Category:5032792091d4c4b30a586d5c
Name:"The Honeymooners"		checkinsCount:1		lat: 40.68172827551179	lng:-73.91798973083496	Category:4bf58dd8d48988d1f1931735
Name:"Gallery at Halsey"		checkinsCount:0		lat: 40.68483213672526	lng:-73.92234563827515	Category:4bf58dd8d48988d1e2931735
Name:"Ed Norton"		checkinsCount:0		lat: 40.68172827551179	lng:-73.9180862903595	Category:4deefb944765f83613cdba6e
Name:"THE HITROOM"		checkinsCount:0		lat: 40.680348	lng:-73.918013	Category:4bf58dd8d48988d1e5931735
Query No.:36
Name:"Brooklyn Public Library - Flatbush Branch"		checkinsCount:328		lat: 40.65213874349124	lng:-73.95824432373047	Category:4bf58dd8d48988d12f941735
Name:"Esaie Couture Design School"		checkinsCount:7		lat: 40.648517386930614	lng:-73.95842347218186	Category:4bf58dd8d48988d1ad941735
Name:"Academy For College Prep"		checkinsCount:81		lat: 40.649392039526816	lng:-73.95825127574912	Category:4bf58dd8d48988d1ae941735
Name:"CAMBA Adult Literacy Center"		checkinsCount:5		lat: 40.650520573509844	lng:-73.95847513108173	Category:4bf58dd8d48988d1a8941735
Name:"Explore Charter School"		checkinsCount:31		lat: 40.64868106528131	lng:-73.9575969279037	Category:4bf58dd8d48988d1ab941735
Name:"Erasmus Hall Auditorium"		checkinsCount:27		lat: 40.649304	lng:-73.958489	Category:4bf58dd8d48988d1af941735
Name:"Angel Manor"		checkinsCount:8		lat: 40.65448591691117	lng:-73.96656244824878	Category:4bf58dd8d48988d141941735
Name:"Honeydew Drop Daycare"		checkinsCount:5		lat: 40.647788	lng:-73.967236	Category:4bf58dd8d48988d1ab941735
Name:"Morrison Hall"		checkinsCount:1		lat: 40.649972	lng:-73.962916	Category:4bf58dd8d48988d199941735
Name:"St Francis Hall"		checkinsCount:1		lat: 40.649844	lng:-73.961748	Category:4bf58dd8d48988d1a3941735
Query No.:37
Name:"Medgar Evers College"		checkinsCount:2204		lat: 40.66663716875565	lng:-73.95703441657946	Category:4bf58dd8d48988d1ae941735
Name:"Maple Street School"		checkinsCount:349		lat: 40.66075942961672	lng:-73.96213713785703	Category:4bf58dd8d48988d198941735
Name:"Double Bridge Run"		checkinsCount:14		lat: 40.65708751830534	lng:-73.96160333868913	Category:4bf58dd8d48988d1b6941735
Name:"Medgar Evers B Building"		checkinsCount:220		lat: 40.666595751594166	lng:-73.95738455137182	Category:4bf58dd8d48988d198941735
Name:"Medgar Evers College Cafe"		checkinsCount:131		lat: 40.666186456324176	lng:-73.95721435546875	Category:4bf58dd8d48988d1a1941735
Name:"Medgar Evers Bookstore"		checkinsCount:25		lat: 40.666265698375426	lng:-73.95701145689874	Category:4bf58dd8d48988d1b1941735
Name:"In The Rainy Gutter"		checkinsCount:1		lat: 40.666935150558025	lng:-73.95858764648438	Category:4bf58dd8d48988d1a8941735
Name:"Voting at Jackie Robinson"		checkinsCount:12		lat: 40.66535677685855	lng:-73.95938202951623	Category:4cae28ecbf23941eb1190695
Name:"PS 375 - Jackie Robinson School"		checkinsCount:29		lat: 40.665206351691616	lng:-73.95903763820755	Category:4bf58dd8d48988d13b941735
Name:"Charles Evans Inniss Memorial Library Medgar Evers College"		checkinsCount:155		lat: 40.66634706143014	lng:-73.95709755568731	Category:4bf58dd8d48988d1a7941735
Name:"Ps 375"		checkinsCount:1		lat: 40.665273	lng:-73.959522	Category:4bf58dd8d48988d1b2941735
Name:"The Copy Center"		checkinsCount:14		lat: 40.66602612571659	lng:-73.95741325091682	Category:4bf58dd8d48988d1b1941735
Query No.:38
Name:"SUNY Downstate Medical Center"		checkinsCount:6224		lat: 40.65535514350383	lng:-73.94482522134682	Category:4bf58dd8d48988d1b3941735
Name:"SUNY Downstate College Of Medicine"		checkinsCount:354		lat: 40.65482300850968	lng:-73.94584124866704	Category:4bf58dd8d48988d1b3941735
Name:"SUNY Downstate Student Center Gym"		checkinsCount:249		lat: 40.65412034228787	lng:-73.94651285701735	Category:4bf58dd8d48988d1b2941735
Name:"SUNY Downstate CHRP Building"		checkinsCount:18		lat: 40.65460817097517	lng:-73.94613400131152	Category:4bf58dd8d48988d1b3941735
Name:"Downstate Student Center"		checkinsCount:956		lat: 40.65408922638183	lng:-73.94627750734799	Category:4bf58dd8d48988d1ab941735
Name:"SUNY Downstate HSE Building"		checkinsCount:285		lat: 40.65482044262501	lng:-73.94609381960223	Category:4bf58dd8d48988d19b941735
Name:"SUNY Downstate CHRP: Occupational Therapy"		checkinsCount:36		lat: 40.65500536574689	lng:-73.94663914208775	Category:4bf58dd8d48988d1b3941735
Name:"SUNY Medical Research Library of Brooklyn"		checkinsCount:1157		lat: 40.654474124346656	lng:-73.94605363788459	Category:4bf58dd8d48988d1a7941735
Name:"SUNY Downstate Cafeteria"		checkinsCount:12		lat: 40.65549686531847	lng:-73.94713854133119	Category:4bf58dd8d48988d1a1941735
Name:"Phyl's Academy"		checkinsCount:91		lat: 40.64706696211381	lng:-73.94388381274065	Category:4bf58dd8d48988d1a0941735
Name:"Kings County T Building - LIU School Of Nursing"		checkinsCount:279		lat: 40.6561199470881	lng:-73.94680560864549	Category:4bf58dd8d48988d19b941735
Name:"SUNY Downstate Alumni Auditorium"		checkinsCount:2		lat: 40.6548	lng:-73.946055	Category:4bf58dd8d48988d1af941735
Name:"Campus Quad"		checkinsCount:41		lat: 40.650960661738814	lng:-73.94525574204916	Category:4bf58dd8d48988d1aa941735
Name:"Abundant Learning"		checkinsCount:10		lat: 40.65146050291168	lng:-73.95207927841663	Category:4bf58dd8d48988d1ab941735
Name:"Suny Downstate College Of Medicine Lecture Hall 4"		checkinsCount:3		lat: 40.65582107012949	lng:-73.94565756050707	Category:4bf58dd8d48988d1b3941735
Name:"Carrel 5G"		checkinsCount:34		lat: 40.6542306114007	lng:-73.94529592393249	Category:4bf58dd8d48988d1b3941735
Name:"Carrel 5B - SUNY Downstate"		checkinsCount:15		lat: 40.654669	lng:-73.946302	Category:4bf58dd8d48988d1a5941735
Name:"The Grove"		checkinsCount:0		lat: 40.654369	lng:-73.946249	Category:4bf58dd8d48988d1aa941735
Name:"Carrel C"		checkinsCount:3		lat: 40.65495342049644	lng:-73.94601345615861	Category:4bf58dd8d48988d1b3941735
Name:"Frat Boys in da Hood"		checkinsCount:25		lat: 40.64944594897138	lng:-73.9530967914288	Category:4bf58dd8d48988d1b0941735
Name:"C.A.L.M Headquarters"		checkinsCount:11		lat: 40.65130441488466	lng:-73.94769117236137	Category:4bf58dd8d48988d1ae941735
Name:"Basic Science Building, Lecture Hall 4"		checkinsCount:9		lat: 40.65394890631776	lng:-73.94633490973277	Category:4bf58dd8d48988d1af941735
Name:"4E9 - Ms. Lernihan's Office (YCD)"		checkinsCount:63		lat: 40.649579	lng:-73.95581	Category:4bf58dd8d48988d197941735
Name:"Faculty Resource Center"		checkinsCount:2		lat: 40.649749	lng:-73.949688	Category:4bf58dd8d48988d1a7941735
Name:"YCD Teacher's Lounge - 4S34"		checkinsCount:15		lat: 40.65436	lng:-73.956568	Category:4bf58dd8d48988d197941735
Name:"High Tech CPR"		checkinsCount:0		lat: 40.6501	lng:-73.94958	Category:4bf58dd8d48988d1ad941735
Name:"YCD Main Office - 3W52"		checkinsCount:1		lat: 40.65061332264918	lng:-73.94892947973791	Category:4bf58dd8d48988d197941735
Query No.:39
Name:"Medgar Evers College (CUNY) : School Of Science, Health & Technology"		checkinsCount:1008		lat: 40.66669101205747	lng:-73.95665645599364	Category:4bf58dd8d48988d19b941735
Name:"Medgar Evers College- C Building"		checkinsCount:802		lat: 40.66683496488295	lng:-73.95222430385623	Category:4bf58dd8d48988d1ae941735
Name:"Brooklyn Public Library - Crown Heights Branch"		checkinsCount:242		lat: 40.661117956696565	lng:-73.9477527432303	Category:4bf58dd8d48988d1a7941735
Name:"Medgar Evers College \"S\" Building"		checkinsCount:627		lat: 40.666870047045265	lng:-73.95622730255127	Category:4bf58dd8d48988d198941735
Name:"Bais Rivkah"		checkinsCount:74		lat: 40.662613	lng:-73.94570508	Category:4bf58dd8d48988d1af941735
Name:"Medgar Evers College, of the City University of New York"		checkinsCount:72		lat: 40.666811850076535	lng:-73.9521554230906	Category:4bf58dd8d48988d1a8941735
Name:"Medgar Evers Collage EMT Class"		checkinsCount:13		lat: 40.666412242587064	lng:-73.95170769751562	Category:4bf58dd8d48988d1a0941735
Name:"Nadeene Lawe Activity Center"		checkinsCount:5		lat: 40.66691530962055	lng:-73.95698275729403	Category:4bf58dd8d48988d1ae941735
Name:"Medgar evers pool"		checkinsCount:52		lat: 40.6669497645233	lng:-73.95217838334854	Category:4bf58dd8d48988d1b2941735
Name:"Seckomobile"		checkinsCount:1		lat: 40.657954	lng:-73.947542	Category:4bf58dd8d48988d1aa941735
Name:"Medgar Evers College Financial Aid Office"		checkinsCount:2		lat: 40.666945	lng:-73.956381	Category:4bf58dd8d48988d198941735
Name:"World Art P19"		checkinsCount:0		lat: 40.66673819793791	lng:-73.95145513391314	Category:4bf58dd8d48988d1a0941735
Name:"Medgar Evers College Bookstore"		checkinsCount:30		lat: 40.66591206523518	lng:-73.9551287537907	Category:4bf58dd8d48988d1b1941735
Name:"Window And Store Set Hell"		checkinsCount:2		lat: 40.6601692	lng:-73.9560006	Category:4bf58dd8d48988d198941735
Name:"Medgar Evers College Student Life"		checkinsCount:0		lat: 40.66691480571709	lng:-73.95624339580536	Category:4bf58dd8d48988d197941735
Name:"Medgar Evers College Student Life"		checkinsCount:0		lat: 40.6669025988096	lng:-73.95618438720703	Category:4bf58dd8d48988d1ab941735
Query No.:41
Name:"Brooklyn Brainery"		checkinsCount:910		lat: 40.67492131033321	lng:-73.96688386761434	Category:4bf58dd8d48988d1ad941735
Name:"Anglo-American cultural exhange center"		checkinsCount:12		lat: 40.67380142211914	lng:-73.96212005615234	Category:4bf58dd8d48988d1a2941735
Name:"Brooklyn School For Music And Theatre"		checkinsCount:844		lat: 40.66965758944761	lng:-73.96192476632201	Category:4bf58dd8d48988d198941735
Name:"Elijah G Stroud"		checkinsCount:176		lat: 40.67423405534577	lng:-73.96088012455691	Category:4bf58dd8d48988d198941735
Name:"Bloomsdaypocalypse"		checkinsCount:6		lat: 40.675137729477434	lng:-73.96736599565752	Category:4bf58dd8d48988d1a7941735
Name:"Prospect Kids Academy"		checkinsCount:41		lat: 40.67328581066076	lng:-73.96064479238957	Category:4bf58dd8d48988d1a8941735
Name:"Shukri's Fraternity House"		checkinsCount:5		lat: 40.67002749420697	lng:-73.96201014518738	Category:4bf58dd8d48988d1b0941735
Name:"fraternity"		checkinsCount:63		lat: 40.67165147290507	lng:-73.96351467727106	Category:4bf58dd8d48988d1b0941735
Name:"Baccalaureate of Science"		checkinsCount:85		lat: 40.67688329425892	lng:-73.96517345125564	Category:4bf58dd8d48988d1ae941735
Name:"Squinking in the Sky with Diamonds"		checkinsCount:17		lat: 40.675469	lng:-73.961671	Category:4bf58dd8d48988d1ad941735
Name:"General Assembly Annex"		checkinsCount:6		lat: 40.676941717555536	lng:-73.96951259872985	Category:4bf58dd8d48988d1a0941735
Name:"Bridge From Pratt To Humanities"		checkinsCount:171		lat: 40.676596620884645	lng:-73.9638340473175	Category:4bf58dd8d48988d1ab941735
Name:"St. Francis School For The Deaf"		checkinsCount:93		lat: 40.67101142886514	lng:-73.96066201182619	Category:4bf58dd8d48988d1a0941735
Name:"Beretta's Platinum Penthouse"		checkinsCount:100		lat: 40.67379394637624	lng:-73.96551209194111	Category:4bf58dd8d48988d17c941735
Name:"P.S. 183"		checkinsCount:5		lat: 40.67497812261251	lng:-73.9601454280593	Category:4bf58dd8d48988d1ab941735
Name:"Prospect Pioneers Library"		checkinsCount:78		lat: 40.66959148523452	lng:-73.95860714820746	Category:4bf58dd8d48988d1a7941735
Name:"MS 340"		checkinsCount:3		lat: 40.67646	lng:-73.970183	Category:4bf58dd8d48988d198941735
Name:"The Operating Room"		checkinsCount:55		lat: 40.675539519424895	lng:-73.95825701563268	Category:4bf58dd8d48988d1b3941735
Name:"PKA"		checkinsCount:71		lat: 40.673009	lng:-73.960596	Category:4bf58dd8d48988d1a8941735
Name:"Piranhas Club"		checkinsCount:3		lat: 40.667823	lng:-73.961002	Category:4bf58dd8d48988d141941735
Name:"Full Gospel Christian School"		checkinsCount:2		lat: 40.66935966543624	lng:-73.95864732731478	Category:4bf58dd8d48988d1ae941735
Name:"Prospect Surf Shack"		checkinsCount:55		lat: 40.675841	lng:-73.95924	Category:4bf58dd8d48988d1ae941735
Name:"Acland 103Brooklyn"		checkinsCount:12		lat: 40.672394	lng:-73.965586	Category:4bf58dd8d48988d1b9941735
Name:"Werehaus"		checkinsCount:11		lat: 40.67594	lng:-73.959547	Category:4bf58dd8d48988d1b0941735
Name:"Shukri's Quad Base"		checkinsCount:0		lat: 40.67006004443011	lng:-73.96538972854614	Category:4bf58dd8d48988d1aa941735
Query No.:42
Name:"The White House"		checkinsCount:986		lat: 40.679267	lng:-73.966681	Category:4bf58dd8d48988d1b0941735
Name:"The Co-op School"		checkinsCount:323		lat: 40.68242282175611	lng:-73.95970346084984	Category:4bf58dd8d48988d1a8941735
Name:"Library"		checkinsCount:36		lat: 40.67897504323647	lng:-73.96845651892392	Category:4bf58dd8d48988d1a7941735
Name:"Square Root of Two Day"		checkinsCount:1		lat: 40.679861	lng:-73.961201	Category:4bf58dd8d48988d19c941735
Name:"Kiddy City"		checkinsCount:32		lat: 40.685711733333335	lng:-73.96617178333334	Category:4bf58dd8d48988d1ab941735
Name:"Arch 102.06 D"		checkinsCount:1		lat: 40.68254	lng:-73.9657	Category:4bf58dd8d48988d19f941735
Name:"Dillion Center, SJC"		checkinsCount:3		lat: 40.67869331747213	lng:-73.96847947724213	Category:4d4b7105d754a06372d81259
Name:"B&Bs Roof Top"		checkinsCount:18		lat: 40.688338991150644	lng:-73.96537147003376	Category:4bf58dd8d48988d103941735
Name:"Higgins Hall South 5th floor Window Ledge"		checkinsCount:8		lat: 40.6843216	lng:-73.966022	Category:4bf58dd8d48988d1a5941735
Name:"Dunket Dungeon"		checkinsCount:1		lat: 40.68532943725586	lng:-73.96209716796875	Category:4bf58dd8d48988d1b0941735
Name:"787 Dean Street"		checkinsCount:8		lat: 40.678565	lng:-73.96388	Category:4bf58dd8d48988d1b0941735
Name:"AF Endeavor"		checkinsCount:13		lat: 40.682656	lng:-73.965816	Category:4bf58dd8d48988d198941735
Name:"Breakthrough Brooklyn"		checkinsCount:0		lat: 40.68654469027241	lng:-73.96933794021606	Category:4bf58dd8d48988d1a0941735
Query No.:43
Name:"Achievement First Crown Heights"		checkinsCount:1053		lat: 40.668292307738064	lng:-73.93991721765822	Category:4bf58dd8d48988d198941735
Name:"P.S 138"		checkinsCount:18		lat: 40.673631158614604	lng:-73.95119682988742	Category:4bf58dd8d48988d198941735
Name:"Ohelei Torah"		checkinsCount:553		lat: 40.66981157243846	lng:-73.94612826106784	Category:4bf58dd8d48988d1a8941735
Name:"Roscoe's Chicken & Waffles"		checkinsCount:91		lat: 40.671393	lng:-73.950664	Category:4bf58dd8d48988d141941735
Name:"Medgar Evers College - School of Professional and Community Development"		checkinsCount:55		lat: 40.670054105953334	lng:-73.95563961102182	Category:4bf58dd8d48988d197941735
Name:"Empire Beauty School"		checkinsCount:11		lat: 40.67456244972434	lng:-73.94838838637212	Category:4bf58dd8d48988d1ad941735
Name:"Hip Center"		checkinsCount:54		lat: 40.672632728053465	lng:-73.95049079712244	Category:4bf58dd8d48988d1ab941735
Name:"Cornell University Cooperative Extensions-Brooklyn Office"		checkinsCount:5		lat: 40.667822508138244	lng:-73.94504335195572	Category:4bf58dd8d48988d1ae941735
Name:"connulingus central"		checkinsCount:3		lat: 40.674533	lng:-73.947331	Category:4bf58dd8d48988d197941735
Name:"The leadership program"		checkinsCount:44		lat: 40.66760453805721	lng:-73.95269498843082	Category:4bf58dd8d48988d1ab941735
Name:"731 Prospect Pl"		checkinsCount:1		lat: 40.674496	lng:-73.95215	Category:4bf58dd8d48988d1a5941735
Name:"CUNY - Brooklyn College (James Hall)"		checkinsCount:53		lat: 40.677237323826134	lng:-73.95411851528813	Category:4bf58dd8d48988d1a0941735
Name:"Earnest Training Center"		checkinsCount:48		lat: 40.674762	lng:-73.9451	Category:4bf58dd8d48988d1b3941735
Name:"Machon Chana Dorms"		checkinsCount:13		lat: 40.66766183277967	lng:-73.94330978085534	Category:4bf58dd8d48988d1a3941735
Name:"St. John Daycare"		checkinsCount:24		lat: 40.672227	lng:-73.953027	Category:4bf58dd8d48988d1a8941735
Name:"Tilly's"		checkinsCount:3		lat: 40.67520936752008	lng:-73.95426201539739	Category:4bf58dd8d48988d141941735
Name:"Thornhill Village Multicultural Outreach Center"		checkinsCount:7		lat: 40.673057920438495	lng:-73.95411277528153	Category:4bf58dd8d48988d1ab941735
Name:"Michelle and Neshi's Room of Swag"		checkinsCount:8		lat: 40.66803657431249	lng:-73.94630620854251	Category:4bf58dd8d48988d1a3941735
Name:"G-Spot"		checkinsCount:4		lat: 40.674181	lng:-73.945978	Category:4bf58dd8d48988d141941735
Name:"Suspended School"		checkinsCount:1		lat: 40.674286816666665	lng:-73.9487363	Category:4bf58dd8d48988d1a0941735
Query No.:44
Name:"Boys High"		checkinsCount:166		lat: 40.68558939283946	lng:-73.94740259098477	Category:4bf58dd8d48988d198941735
Name:"Brooklyn Adult Learning Center"		checkinsCount:245		lat: 40.68135878790896	lng:-73.94961255764515	Category:4bf58dd8d48988d1ab941735
Name:"Zeta Phi Beta Founders' Day"		checkinsCount:4		lat: 40.68149102195302	lng:-73.94657025933229	Category:4bf58dd8d48988d141941735
Name:"At School"		checkinsCount:81		lat: 40.68137470085164	lng:-73.94914760571847	Category:4bf58dd8d48988d1ae941735
Name:"The Honablue Institute of Audio Engineering"		checkinsCount:0		lat: 40.68008475704905	lng:-73.94588470458984	Category:4bf58dd8d48988d1ad941735
Name:"CNR Brooklyn Campus"		checkinsCount:162		lat: 40.68031022196028	lng:-73.94696059462217	Category:4bf58dd8d48988d1a8941735
Name:"True South Books"		checkinsCount:23		lat: 40.682131548439855	lng:-73.94992826510612	Category:4bf58dd8d48988d1b1941735
Name:"Feldicake's Loveshack"		checkinsCount:25		lat: 40.683824452346926	lng:-73.95054819825656	Category:4bf58dd8d48988d141941735
Name:"Arkham Crew Social Club"		checkinsCount:5		lat: 40.684283038536826	lng:-73.95329769261444	Category:4bf58dd8d48988d1b0941735
Name:"CNR - Gill Memorial Library SNR"		checkinsCount:2		lat: 40.680302	lng:-73.946537	Category:4bf58dd8d48988d1b1941735
Name:"Youth Empowerment Mission"		checkinsCount:1		lat: 40.68053444	lng:-73.94416047	Category:4bf58dd8d48988d1af941735
Query No.:45
Name:"PS 398"		checkinsCount:147		lat: 40.66384366242224	lng:-73.92732230957026	Category:4bf58dd8d48988d198941735
Name:"IS 285 Meyer Levin School"		checkinsCount:189		lat: 40.647357609802945	lng:-73.92076046340924	Category:4bf58dd8d48988d13b941735
Name:"Winthrop Campus"		checkinsCount:149		lat: 40.65855573450573	lng:-73.92840157712097	Category:4bf58dd8d48988d1a8941735
Name:"Public School 235"		checkinsCount:248		lat: 40.65417404335855	lng:-73.9400148049087	Category:4bf58dd8d48988d1a8941735
Name:"Brooklyn Public Library - Rugby Branch"		checkinsCount:314		lat: 40.64801999969977	lng:-73.93012380014538	Category:4bf58dd8d48988d1a7941735
Name:"Hebrew Academy for special children"		checkinsCount:55		lat: 40.653284342982616	lng:-73.92047341346142	Category:4bf58dd8d48988d1ab941735
Name:"P.S. 235 Lunchroom"		checkinsCount:24		lat: 40.65062458532233	lng:-73.93898726609878	Category:4bf58dd8d48988d1ab941735
Name:"PS 235 Auditorium"		checkinsCount:17		lat: 40.650612539312874	lng:-73.93900448746452	Category:4bf58dd8d48988d1ab941735
Name:"PS 219"		checkinsCount:58		lat: 40.65907001495361	lng:-73.923143	Category:4bf58dd8d48988d1a8941735
Name:"College Frat Boys What"		checkinsCount:141		lat: 40.6586330128984	lng:-73.93844192205829	Category:4bf58dd8d48988d1b0941735
Name:"Medical Examiners Office"		checkinsCount:148		lat: 40.65861055908973	lng:-73.93843044111462	Category:4bf58dd8d48988d1a8941735
Name:"Workout Time"		checkinsCount:572		lat: 40.65682	lng:-73.920358	Category:4bf58dd8d48988d1b2941735
Name:"Center For Sacred Healing Arts Publishing Co."		checkinsCount:290		lat: 40.66083141992703	lng:-73.92273187637329	Category:4bf58dd8d48988d1b3941735
Name:"The Zone"		checkinsCount:164		lat: 40.656827019128166	lng:-73.9203126653055	Category:4bf58dd8d48988d1b0941735
Name:"IS 252 Bball Court"		checkinsCount:330		lat: 40.656766588947804	lng:-73.92026099622714	Category:4bf58dd8d48988d1ba941735
Name:"Lml"		checkinsCount:12		lat: 40.656937	lng:-73.920239	Category:4bf58dd8d48988d1a7941735
Name:"The gods tomb"		checkinsCount:92		lat: 40.6536436774485	lng:-73.93010370763156	Category:4bf58dd8d48988d103941735
Name:"public school 189"		checkinsCount:5		lat: 40.665950775146484	lng:-73.92512512207031	Category:4bf58dd8d48988d1ab941735
Name:"Alpha Beta Cappa"		checkinsCount:35		lat: 40.65245038381856	lng:-73.92282721051897	Category:4bf58dd8d48988d1b0941735
Name:"A Quad"		checkinsCount:43		lat: 40.657995503101404	lng:-73.9309045362147	Category:4bf58dd8d48988d1aa941735
Name:"Geulah Garden"		checkinsCount:83		lat: 40.666389	lng:-73.938944	Category:4bf58dd8d48988d1a8941735
Name:"The Bat"		checkinsCount:1		lat: 40.652483	lng:-73.926384	Category:4bf58dd8d48988d1b7941735
Name:"Lecture Center 102"		checkinsCount:1		lat: 40.66629	lng:-73.92273	Category:4bf58dd8d48988d198941735
Name:"Brooklyn University"		checkinsCount:15		lat: 40.65085	lng:-73.932956	Category:4bf58dd8d48988d1aa941735
Name:"Baby Paradise"		checkinsCount:32		lat: 40.6631533	lng:-73.93685901666667	Category:4bf58dd8d48988d1ab941735
Name:"Macedonia Theological Seminary"		checkinsCount:8		lat: 40.65147	lng:-73.94043	Category:4bf58dd8d48988d1ae941735
Name:"Shull"		checkinsCount:5		lat: 40.66436889430998	lng:-73.93571517883294	Category:4bf58dd8d48988d1ab941735
Name:"My Mother's Bed"		checkinsCount:4		lat: 40.648349	lng:-73.928029	Category:4bf58dd8d48988d1a3941735
Name:"Showerrr"		checkinsCount:1		lat: 40.648512	lng:-73.927935	Category:4bf58dd8d48988d1b0941735
Name:"TCI College"		checkinsCount:5		lat: 40.66466229948574	lng:-73.9225114589108	Category:4bf58dd8d48988d1a2941735
Name:"BKU Hall"		checkinsCount:10		lat: 40.650909	lng:-73.932844	Category:4bf58dd8d48988d1aa941735
Name:"BKU Arena"		checkinsCount:5		lat: 40.650773	lng:-73.932789	Category:4bf58dd8d48988d1b4941735
Name:"College Audit"		checkinsCount:0		lat: 40.6582895	lng:-73.9314016	Category:4bf58dd8d48988d1af941735
Name:"Yum College"		checkinsCount:0		lat: 40.65843200683594	lng:-73.93104553222656	Category:4bf58dd8d48988d1a1941735
Name:"CHCC Audit."		checkinsCount:0		lat: 40.65884017944336	lng:-73.93110656738281	Category:4bf58dd8d48988d1a1941735
Name:"MW College Audi"		checkinsCount:0		lat: 40.658504486083984	lng:-73.93087005615234	Category:4bf58dd8d48988d1af941735
Name:"Edvars Café"		checkinsCount:0		lat: 40.660064697265625	lng:-73.93128967285156	Category:4bf58dd8d48988d1a1941735
Name:"EXPERT LEAKING WATER PLUMBING"		checkinsCount:0		lat: 40.659408	lng:-73.930187	Category:4bf58dd8d48988d1b3941735
Name:"Drink Up"		checkinsCount:0		lat: 40.6582895	lng:-73.9314016	Category:4bf58dd8d48988d1a1941735
Name:"MW College Café"		checkinsCount:1		lat: 40.658504486083984	lng:-73.93087005615234	Category:4bf58dd8d48988d1a1941735
Name:"College Café Time"		checkinsCount:1		lat: 40.6585033	lng:-73.93087080000001	Category:4bf58dd8d48988d1a1941735
Name:"WMCC Café"		checkinsCount:0		lat: 40.659024233333334	lng:-73.93100986666667	Category:4bf58dd8d48988d1a1941735
Query No.:46
Name:"Achievement First Charter High School"		checkinsCount:214		lat: 40.67777135633217	lng:-73.94189191480356	Category:4bf58dd8d48988d198941735
Name:"P.S. 5"		checkinsCount:149		lat: 40.685256358903025	lng:-73.92265498243266	Category:4bf58dd8d48988d197941735
Name:"C.S.21"		checkinsCount:270		lat: 40.68013759708018	lng:-73.92609377431187	Category:4bf58dd8d48988d1ab941735
Name:"Kolel Menachem"		checkinsCount:454		lat: 40.66867108690255	lng:-73.9422879998876	Category:4bf58dd8d48988d139941735
Name:"Excellence Boys Charter School"		checkinsCount:686		lat: 40.68360470691663	lng:-73.92612821933157	Category:4bf58dd8d48988d198941735
Name:"P.S. 243"		checkinsCount:130		lat: 40.67547788367096	lng:-73.93530185861684	Category:4bf58dd8d48988d1a8941735
Name:"P-TECH (Pathways In Technology Early College High School)"		checkinsCount:82		lat: 40.675784033333336	lng:-73.93904828333334	Category:4d4b7105d754a06372d81259
Name:"KIPPAMP Charter School, 1224 Park Place, Brooklyn"		checkinsCount:148		lat: 40.672022399665316	lng:-73.93715605213875	Category:4bf58dd8d48988d1ab941735
Name:"Buddy Keaton Fields"		checkinsCount:3		lat: 40.67499709818863	lng:-73.93395282122421	Category:4bf58dd8d48988d1b6941735
Name:"Excellence Baby Academy"		checkinsCount:4		lat: 40.684842642901764	lng:-73.92082361434086	Category:4bf58dd8d48988d19a941735
Name:"National Committee for the Furtherance of Jewish Education"		checkinsCount:12		lat: 40.669290213804246	lng:-73.94073235671101	Category:4bf58dd8d48988d197941735
Name:"Bro-zone"		checkinsCount:12		lat: 40.67415055	lng:-73.942238	Category:4bf58dd8d48988d1b0941735
Name:"P.S. 40 George W Carver School"		checkinsCount:151		lat: 40.68013293766641	lng:-73.92100158503781	Category:4bf58dd8d48988d198941735
Name:"The Brooklyn Brownstone School"		checkinsCount:61		lat: 40.681908998642214	lng:-73.93570943828041	Category:4bf58dd8d48988d198941735
Name:"Da Spot"		checkinsCount:7		lat: 40.67979	lng:-73.92877	Category:4bf58dd8d48988d1aa941735
Name:"Chovevei Torah"		checkinsCount:39		lat: 40.66928	lng:-73.938629	Category:4bf58dd8d48988d198941735
Name:"Chabad on Campus"		checkinsCount:71		lat: 40.668959	lng:-73.94238	Category:4bf58dd8d48988d1a8941735
Name:"Library Agudas Chabad"		checkinsCount:1		lat: 40.669324534558946	lng:-73.94256927720882	Category:4bf58dd8d48988d1a7941735
Name:"Eagle Academy For Young Men At Ocean Hill"		checkinsCount:56		lat: 40.677754862712234	lng:-73.91561646410211	Category:4bf58dd8d48988d198941735
Name:"Star Security Training Corp"		checkinsCount:60		lat: 40.67892075983826	lng:-73.92105325391931	Category:4bf58dd8d48988d1ad941735
Name:"P.S.335"		checkinsCount:82		lat: 40.67465364933014	lng:-73.927881	Category:4bf58dd8d48988d198941735
Name:"Jah Macon"		checkinsCount:691		lat: 40.68403158993153	lng:-73.92555987572528	Category:4bf58dd8d48988d141941735
Name:"Aiello"		checkinsCount:6		lat: 40.681612	lng:-73.939499	Category:4bf58dd8d48988d1a8941735
Name:"Tha Learnin' Hole"		checkinsCount:18		lat: 40.672458633333335	lng:-73.9290093	Category:4bf58dd8d48988d1ae941735
Name:"P.S. 28"		checkinsCount:67		lat: 40.678474890149054	lng:-73.92140919472973	Category:4bf58dd8d48988d1a0941735
Name:"P141@35"		checkinsCount:152		lat: 40.67813793785116	lng:-73.93382652788141	Category:4bf58dd8d48988d1a0941735
Name:"Pace University, Midtown Campus, Fred French Building,"		checkinsCount:7		lat: 40.68500772033729	lng:-73.92345871219602	Category:4bf58dd8d48988d1ae941735
Name:"Frat Boy College Dinner"		checkinsCount:25		lat: 40.66879058993659	lng:-73.91670153777805	Category:4bf58dd8d48988d1b0941735
Name:"The Den"		checkinsCount:47		lat: 40.678932	lng:-73.933828	Category:4bf58dd8d48988d141941735
Name:"Hadar Hatorah"		checkinsCount:37		lat: 40.668808104255504	lng:-73.94214449089279	Category:4bf58dd8d48988d1a8941735
Name:"Alpha Omega Phi"		checkinsCount:64		lat: 40.68373423333333	lng:-73.9180689	Category:4bf58dd8d48988d1b0941735
Name:"Ps262"		checkinsCount:1		lat: 40.68371038171551	lng:-73.93542241043758	Category:4bf58dd8d48988d1a1941735
Name:"Tutoring"		checkinsCount:8		lat: 40.67866884818888	lng:-73.91752251542624	Category:4bf58dd8d48988d1ab941735
Name:"The Scube Office"		checkinsCount:3		lat: 40.677482	lng:-73.929178	Category:4bf58dd8d48988d1a0941735
Name:"Brownstone Books"		checkinsCount:29		lat: 40.681616873204206	lng:-73.93432021957184	Category:4bf58dd8d48988d1b1941735
Name:"Purelements"		checkinsCount:2		lat: 40.678706	lng:-73.921254	Category:4bf58dd8d48988d197941735
Name:"Drupal PlayDay @ Macon Library"		checkinsCount:3		lat: 40.683095	lng:-73.934959	Category:4bf58dd8d48988d1a5941735
Name:"Rohr Jewish Learning Institute"		checkinsCount:35		lat: 40.66949711456938	lng:-73.94122603080717	Category:4bf58dd8d48988d1a8941735
Name:"Tzivos Hashem Offices"		checkinsCount:2		lat: 40.66859	lng:-73.942314	Category:4bf58dd8d48988d197941735
Name:"Yagdil Torah Eastern Parkway"		checkinsCount:1		lat: 40.669681	lng:-73.942647	Category:4bf58dd8d48988d1ab941735
Name:"770 Eastern Pkwy"		checkinsCount:1		lat: 40.669048	lng:-73.94207	Category:4bf58dd8d48988d198941735
Query No.:47
Name:"Target First Saturday's @ the Brooklyn Museum"		checkinsCount:969		lat: 40.67085751993316	lng:-73.96335124969482	Category:5267e4d9e4b0ec79466e48c8
Name:"#officehours"		checkinsCount:3		lat: 40.68441	lng:-73.944094	Category:5267e4d9e4b0ec79466e48c9
Name:"Thank goodness its Friday"		checkinsCount:2		lat: 40.680836	lng:-73.9671	Category:5267e4d9e4b0ec79466e48c8
Name:"Safe House"		checkinsCount:5		lat: 40.68531287435626	lng:-73.96344580053405	Category:5267e4d9e4b0ec79466e48c8
Name:"Alternative Pleasure Pop-Up Gesture Store"		checkinsCount:2		lat: 40.678956897698576	lng:-73.95853826971835	Category:5267e4d9e4b0ec79466e48c8
Name:"1539 Fulton - Warehouse"		checkinsCount:1		lat: 40.679191	lng:-73.9385	Category:5267e4d9e4b0ec79466e48c8
Name:"Sakura Matsuri Cherry Blossom Festival"		checkinsCount:846		lat: 40.66920793990923	lng:-73.96354337590422	Category:5267e4d9e4b0ec79466e48c7
Name:"The Space Formerly Known as Shark Bites Cafe"		checkinsCount:2		lat: 40.668519	lng:-73.953171	Category:5267e4d9e4b0ec79466e48c8
Name:"summer fridays"		checkinsCount:1		lat: 40.685511	lng:-73.956919	Category:5267e4d9e4b0ec79466e48c8
Name:"#BedStuyFly #SundayFunday Brunch Party @ Marcus Vineyard"		checkinsCount:4		lat: 40.68272264033709	lng:-73.93792527891972	Category:5267e4d9e4b0ec79466e48c8
Name:"Tildan"		checkinsCount:2		lat: 40.653635	lng:-73.920904	Category:5267e4d9e4b0ec79466e48c8
Name:"France-Suisse"		checkinsCount:1		lat: 40.66202926635742	lng:-73.95240783691406	Category:5267e4d9e4b0ec79466e48c8
Name:"Mt Zion Tabernacle CMOP"		checkinsCount:2		lat: 40.684967041015625	lng:-73.96012878417969	Category:5267e4d9e4b0ec79466e48c8
Name:"fermentation bus"		checkinsCount:1		lat: 40.676741	lng:-73.963967	Category:5267e4d9e4b0ec79466e48c8
