Query No.2
Query No.2
Query No.3
Query No.4
Query No.5
Query No.6
Query No.7
Query No.8
Query No.9
Query No.10
Query No.:11
Query No.:12
Query No.:13
Query No.:14
Query No.:15
Query No.:16
Query No.:17
venueId:526e524711d2854aff368121		checkinsCount:57		lat: 40.65908565316753	lng:-74.01317985902257	Category:5267e4d9e4b0ec79466e48c8
venueId:546f9698498e5de660e9401e		checkinsCount:25		lat: 40.65624051272178	lng:-74.00880153017275	Category:5267e4d9e4b0ec79466e48c8
venueId:546f9698498e5de660e9401e		checkinsCount:40		lat: 40.64981026232001	lng:-74.02145422480906	Category:5267e4d9e4b0ec79466e48d1
venueId:4b81ec60f964a52022c430e3		checkinsCount:1190		lat: 40.66462862113723	lng:-73.95758544809712	Category:4bf58dd8d48988d130941735
venueId:4c475aef49fa9521513d5e62		checkinsCount:3716		lat: 40.638686710137904	lng:-73.94365994050787	Category:4f2a210c4b9023bd5841ed28
venueId:4ea0733e0cd62f6954a05479		checkinsCount:19		lat: 40.661710391563844	lng:-73.92809629440308	Category:4d954b06a243a5684965b473
venueId:4e03c820149509caec6fc540		checkinsCount:372		lat: 40.662280089216054	lng:-73.93871784210205	Category:4d954b06a243a5684965b473
venueId:518dd5d3498ef9877891abd5		checkinsCount:382		lat: 40.65716185407306	lng:-73.96219453552905	Category:4d954b06a243a5684965b473
venueId:4e9a7472be7bc875aa830395		checkinsCount:650		lat: 40.664075385193634	lng:-73.95823979598147	Category:4d954b06a243a5684965b473
venueId:4da1ed78c6e96ea8fddeca5d		checkinsCount:571		lat: 40.63855388934176	lng:-74.02253870247178	Category:4d954b06a243a5684965b473
venueId:4fd7f32ee4b03e22f2b4f357		checkinsCount:315		lat: 40.65865652798565	lng:-73.96240116700693	Category:4d954b06a243a5684965b473
venueId:4eb9c3604fc6624001984782		checkinsCount:706		lat: 40.66479483927712	lng:-73.95116865634918	Category:4d954b06a243a5684965b473
venueId:4f23407ae4b0d10daf3f3ea1		checkinsCount:309		lat: 40.65407113603397	lng:-73.95006028807329	Category:4d954b06a243a5684965b473
venueId:4da9f6f2f7b145b370058008		checkinsCount:981		lat: 40.63882349447704	lng:-73.9420124625236	Category:4d954b06a243a5684965b473
venueId:4e4dce508877402b06ada738		checkinsCount:626		lat: 40.65228491423238	lng:-73.96176979235159	Category:4d954b06a243a5684965b473
venueId:503d236ce4b0f39ae13e8c8c		checkinsCount:116		lat: 40.65391974397887	lng:-73.94914186556423	Category:5032891291d4c4b30a586d68
venueId:4fb9e16b6b74d33d698a1c60		checkinsCount:241		lat: 40.66376128034002	lng:-73.9224100112915	Category:4d954b06a243a5684965b473
venueId:530295a911d20ac146073f87		checkinsCount:12		lat: 40.65699278109454	lng:-73.95819961678933	Category:4d954b06a243a5684965b473
venueId:4f8723b5e4b002b909275cb8		checkinsCount:3		lat: 40.660740145653705	lng:-73.97898835996266	Category:4d954b06a243a5684965b473
venueId:4e1649377d8b69590f4147ea		checkinsCount:141		lat: 40.65812042509574	lng:-73.93007787439642	Category:4d954b06a243a5684965b473
venueId:51ba76d0498e2611a90ceb6e		checkinsCount:65		lat: 40.64095144160037	lng:-73.97429358321752	Category:4d954b06a243a5684965b473
venueId:4e3566ebd1649e45e3d08e41		checkinsCount:171		lat: 40.64237554559873	lng:-73.92519820165529	Category:4d954b06a243a5684965b473
venueId:514d228de4b0fb270d703755		checkinsCount:92		lat: 40.66241046867676	lng:-73.97831686468848	Category:4d954b06a243a5684965b473
venueId:4e0d4e4a091acd6746d8e132		checkinsCount:486		lat: 40.64977003699423	lng:-73.9605912566185	Category:4d954b06a243a5684965b473
venueId:4a6bafeaf964a5209dcf1fe3		checkinsCount:758		lat: 40.653374	lng:-73.96245002746582	Category:4d954b06a243a5684965b473
venueId:42893400f964a52052231fe3		checkinsCount:61519		lat: 40.66390776998241	lng:-73.970947265625	Category:4bf58dd8d48988d163941735
venueId:4a8812c8f964a520140520e3		checkinsCount:7203		lat: 40.65225269975945	lng:-73.99085998535155	Category:4bf58dd8d48988d15c941735
venueId:4a4ff7a8f964a520ddaf1fe3		checkinsCount:9709		lat: 40.64779198054751	lng:-74.00373458862305	Category:4bf58dd8d48988d163941735
venueId:4c7c0f00794e224b4b266d28		checkinsCount:4768		lat: 40.6443232677506	lng:-74.02466173612738	Category:4bf58dd8d48988d12d941735
venueId:4b8c3421f964a520edc332e3		checkinsCount:3278		lat: 40.65085265211483	lng:-73.96828651428223	Category:4bf58dd8d48988d163941735
venueId:49d8307ef964a520b15d1fe3		checkinsCount:5699		lat: 40.665014570215	lng:-73.96446704864502	Category:4bf58dd8d48988d17b941735
venueId:4b93ed2af964a5204f5a34e3		checkinsCount:2688		lat: 40.66083141992703	lng:-73.96527171134949	Category:4bf58dd8d48988d162941735
venueId:4edbdcdf9a5286d9211cacd6		checkinsCount:4892		lat: 40.655237463082294	lng:-73.96229785129567	Category:4bf58dd8d48988d163941735
venueId:4ecadeed99119fe1ad742cda		checkinsCount:2831		lat: 40.66424957789683	lng:-73.97667646408081	Category:4bf58dd8d48988d163941735
venueId:4a7d84e8f964a520beee1fe3		checkinsCount:4393		lat: 40.663418	lng:-73.97707103207607	Category:4bf58dd8d48988d163941735
venueId:4c329d79213c2d7f4fcd355d		checkinsCount:13344		lat: 40.65200850751782	lng:-73.95901679992676	Category:4f2a25ac4b909258e854f55f
venueId:4e9982340aaf0a73a1def55c		checkinsCount:6607		lat: 40.660782587829814	lng:-73.95596981048584	Category:4f2a25ac4b909258e854f55f
venueId:4c6b8bf096eaa5937bc622df		checkinsCount:7940		lat: 40.65378295079248	lng:-73.93064975738525	Category:4f2a25ac4b909258e854f55f
venueId:4dbc72210cb691071ca3bce6		checkinsCount:1548		lat: 40.66358142556565	lng:-73.96403125201438	Category:5109983191d435c0d71c2bb1
venueId:4b92de14f964a520de2234e3		checkinsCount:4846		lat: 40.654857361397404	lng:-73.96931648254395	Category:4bf58dd8d48988d161941735
venueId:4f5e0565e4b008b158a75a13		checkinsCount:5187		lat: 40.64572136179469	lng:-74.0102820248073	Category:4f2a25ac4b909258e854f55f
venueId:4c97edbdf419a09395806b88		checkinsCount:79703		lat: 40.65016889724004	lng:-73.94957542419434	Category:5345731ebcbc57f1066c39b2
venueId:4e9d1ef8754ae3862f13d0a1		checkinsCount:2789		lat: 40.663	lng:-73.99	Category:4f2a25ac4b909258e854f55f
venueId:4abe76d5f964a520cd8d20e3		checkinsCount:1657		lat: 40.659685	lng:-73.96364601832441	Category:4bf58dd8d48988d162941735
venueId:4ccc333c7c2ff04d9d61977e		checkinsCount:6623		lat: 40.656735536301305	lng:-73.9788965316875	Category:4f2a25ac4b909258e854f55f
venueId:4bf18e26324cc9b64c2ccc92		checkinsCount:4726		lat: 40.6388696475824	lng:-74.00613784790039	Category:4f2a25ac4b909258e854f55f
venueId:4e1c4a5f483bf2b0dbb7dec6		checkinsCount:1671		lat: 40.65138008448871	lng:-73.94989382431724	Category:4bf58dd8d48988d162941735
venueId:4c7707b2f20c199cc5e5b399		checkinsCount:2411		lat: 40.65102	lng:-73.97215	Category:4bf58dd8d48988d164941735
venueId:4cd92c4153a7f04d10b66616		checkinsCount:2126		lat: 40.66311582223868	lng:-73.96216583669518	Category:4bf58dd8d48988d162941735
venueId:485e640df964a520d7501fe3		checkinsCount:25113		lat: 40.6634023	lng:-73.976447	Category:4bf58dd8d48988d1f2931735
venueId:4ea704af6d86f2edb667d8b7		checkinsCount:142		lat: 40.64587084902795	lng:-73.95800828933716	Category:4bf58dd8d48988d137941735
venueId:4bddff7ee75c0f47cd7bc603		checkinsCount:828		lat: 40.65535816	lng:-73.962932	Category:4bf58dd8d48988d1e5931735
venueId:462e89e4f964a520ed451fe3		checkinsCount:307		lat: 40.6627456055465	lng:-73.9537855946241	Category:4bf58dd8d48988d1e7931735
venueId:45bca695f964a520ff411fe3		checkinsCount:9406		lat: 40.661554974247885	lng:-73.97992385801638	Category:4bf58dd8d48988d17f941735
venueId:4ea21c72722ec75ade2911c7		checkinsCount:637		lat: 40.64705935216955	lng:-74.02248859405518	Category:4bf58dd8d48988d1e2931735
venueId:4ffb5fc3e4b063a95ddbf19e		checkinsCount:329		lat: 40.661791767814904	lng:-73.9753324128819	Category:5032792091d4c4b30a586d5c
venueId:53af6c06498e4cf63ecfa4f2		checkinsCount:174		lat: 40.65657392871081	lng:-74.00853182642739	Category:4bf58dd8d48988d17e941735
venueId:4be89153947820a1ac13b5db		checkinsCount:60		lat: 40.64718571296911	lng:-74.00777435855494	Category:4bf58dd8d48988d134941735
venueId:511fd781e4b0c6743a3f03c5		checkinsCount:196		lat: 40.64348218217321	lng:-74.02511502944002	Category:4bf58dd8d48988d1e2931735
venueId:4e9e45525c5c9252b61ab088		checkinsCount:1128		lat: 40.661717	lng:-73.997411	Category:4bf58dd8d48988d17e941735
venueId:4eb5b57a7ee5024d7f260e61		checkinsCount:158		lat: 40.64334394710344	lng:-73.94880319616303	Category:4bf58dd8d48988d1e5931735
venueId:52e3f390498e280698c0e365		checkinsCount:1		lat: 40.661033630371094	lng:-73.94515228271484	Category:4bf58dd8d48988d134941735
venueId:52596aff11d227afc30803e0		checkinsCount:3		lat: 40.658294	lng:-73.982394	Category:4bf58dd8d48988d134941735
venueId:4f09b5a0e4b090ef2335a08b		checkinsCount:29		lat: 40.65405821619552	lng:-73.96183866968715	Category:4bf58dd8d48988d134941735
venueId:53495265498e675ab3a911d3		checkinsCount:4		lat: 40.649003060128756	lng:-73.95720661409769	Category:4bf58dd8d48988d134941735
venueId:4e20c043d164740631ff6de7		checkinsCount:39		lat: 40.65255817	lng:-73.92320015	Category:4bf58dd8d48988d134941735
venueId:4f2d9afce4b0dbffdc71fe94		checkinsCount:139		lat: 40.66362675828386	lng:-73.99555690577809	Category:4bf58dd8d48988d134941735
venueId:4ce7eadd678aa0932c44e5ea		checkinsCount:116		lat: 40.661232	lng:-74.00002777576447	Category:4bf58dd8d48988d1e2931735
venueId:4deeb2dcd4c0e9e23b6cc475		checkinsCount:380		lat: 40.657979482538316	lng:-74.00523796702109	Category:4bf58dd8d48988d1f2931735
venueId:4af5aa2ff964a520fefa21e3		checkinsCount:226		lat: 40.662865	lng:-73.990953	Category:4bf58dd8d48988d1e2931735
venueId:4cc6257c01fb236a15c8b5ba		checkinsCount:73		lat: 40.63986599619224	lng:-73.97921793045865	Category:4bf58dd8d48988d1e5931735
venueId:4beeb7f435dc0f47f525405b		checkinsCount:64		lat: 40.65088521169599	lng:-74.01403427124023	Category:4bf58dd8d48988d1e2931735
venueId:4b5ce064f964a520c94829e3		checkinsCount:133		lat: 40.66166769169055	lng:-73.9984721790298	Category:4bf58dd8d48988d1e2931735
venueId:4ffe155be4b0d9a11c535709		checkinsCount:179		lat: 40.66129532306756	lng:-73.97133350372314	Category:5032792091d4c4b30a586d5c
venueId:485e640df964a520d7501fe3		checkinsCount:25113		lat: 40.6634023	lng:-73.976447	Category:4bf58dd8d48988d1f2931735
venueId:4ea704af6d86f2edb667d8b7		checkinsCount:142		lat: 40.64587084902795	lng:-73.95800828933716	Category:4bf58dd8d48988d137941735
venueId:4bddff7ee75c0f47cd7bc603		checkinsCount:828		lat: 40.65535816	lng:-73.962932	Category:4bf58dd8d48988d1e5931735
venueId:462e89e4f964a520ed451fe3		checkinsCount:307		lat: 40.6627456055465	lng:-73.9537855946241	Category:4bf58dd8d48988d1e7931735
venueId:45bca695f964a520ff411fe3		checkinsCount:9406		lat: 40.661554974247885	lng:-73.97992385801638	Category:4bf58dd8d48988d17f941735
venueId:4ea21c72722ec75ade2911c7		checkinsCount:637		lat: 40.64705935216955	lng:-74.02248859405518	Category:4bf58dd8d48988d1e2931735
venueId:4ffb5fc3e4b063a95ddbf19e		checkinsCount:329		lat: 40.661791767814904	lng:-73.9753324128819	Category:5032792091d4c4b30a586d5c
venueId:53af6c06498e4cf63ecfa4f2		checkinsCount:174		lat: 40.65657392871081	lng:-74.00853182642739	Category:4bf58dd8d48988d17e941735
venueId:4be89153947820a1ac13b5db		checkinsCount:60		lat: 40.64718571296911	lng:-74.00777435855494	Category:4bf58dd8d48988d134941735
venueId:511fd781e4b0c6743a3f03c5		checkinsCount:196		lat: 40.64348218217321	lng:-74.02511502944002	Category:4bf58dd8d48988d1e2931735
venueId:53e9413e498e9487a7bf5abe		checkinsCount:0		lat: 40.66416819521894	lng:-73.9433741569519	Category:4bf58dd8d48988d1e2931735
venueId:4e9e45525c5c9252b61ab088		checkinsCount:1128		lat: 40.661717	lng:-73.997411	Category:4bf58dd8d48988d17e941735
venueId:4eb5b57a7ee5024d7f260e61		checkinsCount:158		lat: 40.64334394710344	lng:-73.94880319616303	Category:4bf58dd8d48988d1e5931735
venueId:52e3f390498e280698c0e365		checkinsCount:1		lat: 40.661033630371094	lng:-73.94515228271484	Category:4bf58dd8d48988d134941735
venueId:52596aff11d227afc30803e0		checkinsCount:3		lat: 40.658294	lng:-73.982394	Category:4bf58dd8d48988d134941735
venueId:4f09b5a0e4b090ef2335a08b		checkinsCount:29		lat: 40.65405821619552	lng:-73.96183866968715	Category:4bf58dd8d48988d134941735
venueId:53495265498e675ab3a911d3		checkinsCount:4		lat: 40.649003060128756	lng:-73.95720661409769	Category:4bf58dd8d48988d134941735
venueId:4e20c043d164740631ff6de7		checkinsCount:39		lat: 40.65255817	lng:-73.92320015	Category:4bf58dd8d48988d134941735
venueId:4f2d9afce4b0dbffdc71fe94		checkinsCount:139		lat: 40.66362675828386	lng:-73.99555690577809	Category:4bf58dd8d48988d134941735
venueId:4ce7eadd678aa0932c44e5ea		checkinsCount:116		lat: 40.661232	lng:-74.00002777576447	Category:4bf58dd8d48988d1e2931735
venueId:4deeb2dcd4c0e9e23b6cc475		checkinsCount:380		lat: 40.657979482538316	lng:-74.00523796702109	Category:4bf58dd8d48988d1f2931735
venueId:4af5aa2ff964a520fefa21e3		checkinsCount:226		lat: 40.662865	lng:-73.990953	Category:4bf58dd8d48988d1e2931735
venueId:4cc6257c01fb236a15c8b5ba		checkinsCount:73		lat: 40.63986599619224	lng:-73.97921793045865	Category:4bf58dd8d48988d1e5931735
venueId:4beeb7f435dc0f47f525405b		checkinsCount:64		lat: 40.65088521169599	lng:-74.01403427124023	Category:4bf58dd8d48988d1e2931735
venueId:4b5ce064f964a520c94829e3		checkinsCount:133		lat: 40.66166769169055	lng:-73.9984721790298	Category:4bf58dd8d48988d1e2931735
venueId:4ffe155be4b0d9a11c535709		checkinsCount:179		lat: 40.66129532306756	lng:-73.97133350372314	Category:5032792091d4c4b30a586d5c
venueId:4a7c3df8f964a5200bec1fe3		checkinsCount:14885		lat: 40.660536	lng:-73.9803324	Category:4bf58dd8d48988d116941735
venueId:49c4489df964a520b9561fe3		checkinsCount:7237		lat: 40.63968238177356	lng:-73.96719954682656	Category:4bf58dd8d48988d116941735
venueId:4ec71ef0e300719914b279b3		checkinsCount:4531		lat: 40.66093164348044	lng:-73.9936975351119	Category:4bf58dd8d48988d116941735
venueId:4af5e676f964a52089fe21e3		checkinsCount:5664		lat: 40.663164	lng:-73.99130693333333	Category:4bf58dd8d48988d116941735
venueId:4a6bdf50f964a52024d01fe3		checkinsCount:3633		lat: 40.66214064731413	lng:-73.9925555053014	Category:4bf58dd8d48988d116941735
venueId:4e613df262e13e3bce1f28e0		checkinsCount:10046		lat: 40.65946654883737	lng:-73.98791845009258	Category:4bf58dd8d48988d117941735
venueId:49eb18e4f964a520a5661fe3		checkinsCount:5056		lat: 40.66543225851896	lng:-73.98278771639265	Category:4bf58dd8d48988d123941735
venueId:4b86f610f964a52057a831e3		checkinsCount:2727		lat: 40.64029665454022	lng:-73.966568187885	Category:4bf58dd8d48988d123941735
venueId:4fe346a5e4b0ec930ee4cb4b		checkinsCount:970		lat: 40.66469729518189	lng:-73.99347945959305	Category:4bf58dd8d48988d116941735
venueId:4fff7a7ee4b077c7a9bba65b		checkinsCount:2983		lat: 40.665698794843074	lng:-73.98877355904663	Category:4bf58dd8d48988d116941735
venueId:4d35113b62a22d432a40049b		checkinsCount:5266		lat: 40.66336832182562	lng:-73.99132164635607	Category:4bf58dd8d48988d11b941735
venueId:4be5e6c62468c9281bbd0043		checkinsCount:6907		lat: 40.663289	lng:-73.984549	Category:4bf58dd8d48988d155941735
venueId:4dc08503fc60bc343161c023		checkinsCount:2740		lat: 40.660761	lng:-73.99402	Category:4bf58dd8d48988d116941735
venueId:4ae12770f964a520858521e3		checkinsCount:6858		lat: 40.66503528333333	lng:-73.98982658333334	Category:4bf58dd8d48988d116941735
venueId:51940c20498eeaa617325bdb		checkinsCount:1264		lat: 40.63923852177537	lng:-73.96858278964022	Category:4bf58dd8d48988d116941735
venueId:49eb9ebef964a52002671fe3		checkinsCount:3092		lat: 40.66190076747372	lng:-73.99306626319299	Category:4bf58dd8d48988d121941735
venueId:3fd66200f964a52077f11ee3		checkinsCount:3830		lat: 40.66492872550201	lng:-73.9898065714936	Category:4bf58dd8d48988d118941735
venueId:3fd66200f964a52077f11ee3		checkinsCount:887		lat: 40.66157457689133	lng:-73.99314086816442	Category:4bf58dd8d48988d155941735
venueId:51fc2ccc498e79eebaf498f4		checkinsCount:3303		lat: 40.66385801622577	lng:-73.98042317106521	Category:4bf58dd8d48988d116941735
venueId:51fc2ccc498e79eebaf498f4		checkinsCount:1617		lat: 40.660655	lng:-73.994494	Category:4bf58dd8d48988d116941735
venueId:3fd66200f964a5208beb1ee3		checkinsCount:661		lat: 40.663269	lng:-73.984503	Category:4bf58dd8d48988d116941735
venueId:4b6e3915f964a520acb22ce3		checkinsCount:2145		lat: 40.657539	lng:-73.97970736026764	Category:4bf58dd8d48988d11d941735
venueId:52b4f847498e51be82233fab		checkinsCount:1226		lat: 40.66065	lng:-73.990529	Category:4bf58dd8d48988d116941735
venueId:4a1099f5f964a520e5761fe3		checkinsCount:1011		lat: 40.638676	lng:-73.968408	Category:4bf58dd8d48988d116941735
venueId:4c80259ce63376b01416a43d		checkinsCount:224		lat: 40.65956429335148	lng:-73.9605012970247	Category:4bf58dd8d48988d155941735
venueId:4a2b36f6f964a520b9961fe3		checkinsCount:804		lat: 40.665520856222564	lng:-73.98269588993263	Category:4bf58dd8d48988d123941735
venueId:54249c15498ec9a9cdb22b9e		checkinsCount:128		lat: 40.662708079190125	lng:-73.99218247901545	Category:4bf58dd8d48988d123941735
venueId:4a7df2caf964a5204ef01fe3		checkinsCount:1067		lat: 40.656246069894195	lng:-74.00826786069122	Category:4bf58dd8d48988d11f941735
venueId:52607c7f498eb7820ce0f334		checkinsCount:1118		lat: 40.641969707988295	lng:-74.01708182377133	Category:4bf58dd8d48988d116941735
venueId:53825f8b498e1eadd02a5127		checkinsCount:309		lat: 40.652637159217264	lng:-73.97602113663933	Category:4bf58dd8d48988d116941735
venueId:4b3bcea9f964a520977b25e3		checkinsCount:287		lat: 40.63932556212176	lng:-73.96867275238037	Category:4bf58dd8d48988d11b941735
venueId:5360661d498e35b5bbb1f62a		checkinsCount:4099		lat: 40.66090993271911	lng:-73.96127617072706	Category:4bf58dd8d48988d116941735
venueId:524f3a38bce632e2af82f8f5		checkinsCount:142		lat: 40.650012	lng:-73.949869	Category:4bf58dd8d48988d116941735
venueId:4bb673376edc76b0d5f6301c		checkinsCount:1835		lat: 40.647691792888786	lng:-73.97290464197715	Category:4bf58dd8d48988d116941735
venueId:4c278fdc3703d13aed2da736		checkinsCount:791		lat: 40.642794581170335	lng:-73.97937862964275	Category:4bf58dd8d48988d11b941735
venueId:4a62bdc7f964a5207dc41fe3		checkinsCount:214		lat: 40.63973837002983	lng:-73.95471547504194	Category:4bf58dd8d48988d11f941735
venueId:4a62af49f964a52073c41fe3		checkinsCount:320		lat: 40.640894740056275	lng:-73.94932555041507	Category:4bf58dd8d48988d121941735
venueId:4caf57ae75ebb60cc078bbad		checkinsCount:216		lat: 40.63956980077272	lng:-73.9513349533081	Category:4bf58dd8d48988d121941735
venueId:4bdb9a92c79cc92895c383e9		checkinsCount:1892		lat: 40.660334507199494	lng:-73.98031412579742	Category:4bf58dd8d48988d116941735
venueId:51bbb5b3498ef9c24450297b		checkinsCount:419		lat: 40.64671106061107	lng:-73.99650953931729	Category:4bf58dd8d48988d120941735
venueId:49cabbc6f964a520d9581fe3		checkinsCount:378		lat: 40.65675328113802	lng:-73.96008228994852	Category:4bf58dd8d48988d116941735
venueId:4d358252c6cba35d92e13c7a		checkinsCount:68		lat: 40.66004688852821	lng:-73.9610752778438	Category:4bf58dd8d48988d11e941735
venueId:4d35095572a8b1f7c31fb6d0		checkinsCount:332		lat: 40.650327127423964	lng:-74.01405780804117	Category:4bf58dd8d48988d11f941735
venueId:53f74a0c498ecc0a79919089		checkinsCount:144		lat: 40.64593086898501	lng:-73.95195452071731	Category:4bf58dd8d48988d121941735
venueId:4f2b1d06e4b0e0a34667ef32		checkinsCount:181		lat: 40.66576	lng:-73.997744	Category:50327c8591d4c4b30a586d5d
venueId:4d27fded342d6dcb04edf3ca		checkinsCount:238		lat: 40.66359553365162	lng:-73.95856696909182	Category:4bf58dd8d48988d11f941735
venueId:4c2e72c6452620a1bae11b0f		checkinsCount:373		lat: 40.65951131990729	lng:-73.98786106009348	Category:4bf58dd8d48988d117941735
venueId:4dd75447fa76ad96d122ccc5		checkinsCount:317		lat: 40.65044629879346	lng:-73.95794706167582	Category:4bf58dd8d48988d11f941735
venueId:4fe132e0e4b0b79ab9c64686		checkinsCount:93		lat: 40.64688026400942	lng:-73.94884586334229	Category:4bf58dd8d48988d121941735
venueId:4d6ae5472bf05481857dc9ed		checkinsCount:127		lat: 40.639246	lng:-73.9687459	Category:4bf58dd8d48988d121941735
venueId:4a2aa3bcf964a5202d961fe3		checkinsCount:2680		lat: 40.66323425152285	lng:-73.99152250765546	Category:52f2ab2ebcbc57f1066b8b46
venueId:49eb9702f964a520f9661fe3		checkinsCount:1307		lat: 40.663433	lng:-73.984454	Category:4bf58dd8d48988d1f5941735
venueId:4b609494f964a520a8ee29e3		checkinsCount:955		lat: 40.648426	lng:-73.978667	Category:4bf58dd8d48988d1f9941735
venueId:4beffc1dc8d920a186489430		checkinsCount:865		lat: 40.640816109912606	lng:-73.96573593884727	Category:4bf58dd8d48988d1fa941735
venueId:4a8a0400f964a520a90920e3		checkinsCount:1285		lat: 40.651692	lng:-73.975952	Category:4bf58dd8d48988d119951735
venueId:49eb5863f964a520c6661fe3		checkinsCount:1401		lat: 40.66366362039965	lng:-73.9954948425293	Category:4bf58dd8d48988d10d951735
venueId:4a6cd9e8f964a520d1d11fe3		checkinsCount:925		lat: 40.66139298647552	lng:-73.96108746528625	Category:4bf58dd8d48988d186941735
venueId:49e3c784f964a520ce621fe3		checkinsCount:1640		lat: 40.6634383853172	lng:-73.98437745502413	Category:4bf58dd8d48988d119951735
venueId:4b3d21b3f964a520a08e25e3		checkinsCount:301		lat: 40.65815870877952	lng:-73.9601569077136	Category:4bf58dd8d48988d119951735
venueId:4ac76e95f964a52032b720e3		checkinsCount:5633		lat: 40.66465	lng:-73.983541	Category:4bf58dd8d48988d1f5941735
venueId:4b6f38bdf964a52020e52ce3		checkinsCount:480		lat: 40.640232	lng:-73.96672837142856	Category:4bf58dd8d48988d119951735
venueId:4a7ca28cf964a520fdec1fe3		checkinsCount:237		lat: 40.66370055646368	lng:-73.99102896237186	Category:4bf58dd8d48988d1f9941735
venueId:4a47a8b1f964a520e7a91fe3		checkinsCount:1170		lat: 40.66004193659185	lng:-73.98053221627114	Category:4bf58dd8d48988d119951735
venueId:4d2abf5dec272d438760384c		checkinsCount:1118		lat: 40.63884521059444	lng:-73.94198376069232	Category:4bf58dd8d48988d10d951735
venueId:4d085ce3611ff04d92c31afb		checkinsCount:970		lat: 40.64924555196105	lng:-73.963640951225	Category:4bf58dd8d48988d118951735
venueId:53192dd6498e6f151e87e3ed		checkinsCount:507		lat: 40.65846651381901	lng:-74.0040845289792	Category:4bf58dd8d48988d122951735
venueId:4bf1953ad39ad13a356aaa0e		checkinsCount:544		lat: 40.64894950556934	lng:-73.96422066240683	Category:4bf58dd8d48988d1f6941735
venueId:4b1726aef964a52011c323e3		checkinsCount:2427		lat: 40.64114802	lng:-73.96478	Category:50aa9e744b90af0d42d5de0e
venueId:4bca0b51511f952176dfaec7		checkinsCount:642		lat: 40.655178533333334	lng:-74.008832	Category:4bf58dd8d48988d186941735
venueId:4bfd449683bbd13a71f562c5		checkinsCount:698		lat: 40.640793852256685	lng:-73.94848174669116	Category:4bf58dd8d48988d10f951735
venueId:4bfd411083bbd13a9af462c5		checkinsCount:822		lat: 40.64152689600208	lng:-73.96376148537664	Category:4bf58dd8d48988d10f951735
venueId:4c06d1c68a81c9b664512690		checkinsCount:872		lat: 40.63929435169446	lng:-74.01968691466769	Category:4bf58dd8d48988d10f951735
venueId:4b8df456f964a520661433e3		checkinsCount:589		lat: 40.66241455	lng:-73.985296	Category:4bf58dd8d48988d111951735
venueId:4aec56f4f964a52028c621e3		checkinsCount:1050		lat: 40.647650371784955	lng:-73.97394347913898	Category:4bf58dd8d48988d118951735
venueId:4a8c712ff964a520030e20e3		checkinsCount:400		lat: 40.66427392999999	lng:-73.9837	Category:4bf58dd8d48988d10d951735
venueId:4bfd5beb83bbd13a62fb62c5		checkinsCount:741		lat: 40.65547099739386	lng:-73.94738537036618	Category:4bf58dd8d48988d10f951735
venueId:51c09036498e3b4dd306d62c		checkinsCount:1059		lat: 40.66095618515696	lng:-73.96106379824417	Category:4bf58dd8d48988d1f5941735
venueId:4a1079e9f964a520d5761fe3		checkinsCount:12581		lat: 40.65536200283102	lng:-74.0088951587677	Category:52e816a6bcbc57f1066b7a54
venueId:4b58e78cf964a520057228e3		checkinsCount:561		lat: 40.66517809028229	lng:-73.95691961814863	Category:4bf58dd8d48988d10f951735
venueId:4fa557cee4b0d90525917b70		checkinsCount:215		lat: 40.66558317218466	lng:-73.98924989325472	Category:4bf58dd8d48988d101951735
venueId:4b818a9df964a520afad30e3		checkinsCount:948		lat: 40.65541800696871	lng:-73.96009376960656	Category:4bf58dd8d48988d10f951735
venueId:4b785c6ef964a52061c82ee3		checkinsCount:750		lat: 40.643567046363046	lng:-73.97731482982635	Category:4bf58dd8d48988d10f951735
venueId:4ec468af775b7dea874f43d6		checkinsCount:161		lat: 40.65783705737272	lng:-73.98277623808755	Category:4bf58dd8d48988d127951735
venueId:4c4a188b5609c9b60bc92d8f		checkinsCount:226		lat: 40.66331665930838	lng:-73.98461275818035	Category:4bf58dd8d48988d1f8941735
venueId:4a217611f964a520f77c1fe3		checkinsCount:3458		lat: 40.6449382371702	lng:-73.97986072638912	Category:4bf58dd8d48988d118951735
venueId:4c955ff7f244b1f7c5662b1d		checkinsCount:2280		lat: 40.664817330910076	lng:-73.9931810400601	Category:50aa9e744b90af0d42d5de0e
venueId:4b70a3e1f964a520fd262de3		checkinsCount:508		lat: 40.641603632087254	lng:-73.96329656751949	Category:4bf58dd8d48988d118951735
venueId:4bc11ec9461576b0987e7b32		checkinsCount:545		lat: 40.64269458527047	lng:-73.9797516808023	Category:4bf58dd8d48988d186941735
venueId:4b005ecbf964a520673d22e3		checkinsCount:928		lat: 40.66197407051926	lng:-73.98219084361823	Category:4bf58dd8d48988d118951735
venueId:4bf5e3a5d4cdb713713c84fe		checkinsCount:396		lat: 40.65297247838013	lng:-73.93054861280804	Category:4bf58dd8d48988d1f6941735
venueId:4b92bccdf964a520db1634e3		checkinsCount:647		lat: 40.64478844675421	lng:-74.01076978215657	Category:4bf58dd8d48988d10f951735
venueId:4ac8dfe5f964a520febc20e3		checkinsCount:298		lat: 40.661654	lng:-74.00031008333333	Category:4bf58dd8d48988d100951735
venueId:4bfd511c83bbd13af1f862c5		checkinsCount:426		lat: 40.66335566087344	lng:-73.93149008620492	Category:4bf58dd8d48988d10f951735
venueId:50a6b79329a6841e56fb6f2a		checkinsCount:195		lat: 40.66426585442048	lng:-73.9804744720459	Category:4bf58dd8d48988d114951735
venueId:4c36139d3849c9287f68bbb1		checkinsCount:458		lat: 40.64153995987908	lng:-73.93751621246338	Category:4bf58dd8d48988d10f951735
venueId:4bebf37361aca59313948500		checkinsCount:2255		lat: 40.63938511682027	lng:-74.02289811076724	Category:4d954b0ea243a5684a65b473
venueId:49fe0ef1f964a520656f1fe3		checkinsCount:1603		lat: 40.66129766713343	lng:-74.00055530971083	Category:4bf58dd8d48988d1fa941735
venueId:50e72f8ee41296fd8321b0c9		checkinsCount:58		lat: 40.639341844726296	lng:-73.9679217338562	Category:4bf58dd8d48988d1f8941735
venueId:4b074e0ef964a520a9fb22e3		checkinsCount:1125		lat: 40.66573816896913	lng:-73.98258684595439	Category:4bf58dd8d48988d118951735
venueId:4c65dae9f909ef3ba556c78f		checkinsCount:469		lat: 40.65492247663557	lng:-73.95635604858398	Category:52f2ab2ebcbc57f1066b8b46
venueId:4a7c3df8f964a5200bec1fe3		checkinsCount:14885		lat: 40.660536	lng:-73.9803324	Category:4bf58dd8d48988d116941735
venueId:49c4489df964a520b9561fe3		checkinsCount:7237		lat: 40.63968238177356	lng:-73.96719954682656	Category:4bf58dd8d48988d116941735
venueId:4ec71ef0e300719914b279b3		checkinsCount:4531		lat: 40.66093164348044	lng:-73.9936975351119	Category:4bf58dd8d48988d116941735
venueId:4af5e676f964a52089fe21e3		checkinsCount:5664		lat: 40.663164	lng:-73.99130693333333	Category:4bf58dd8d48988d116941735
venueId:4a6bdf50f964a52024d01fe3		checkinsCount:3633		lat: 40.66214064731413	lng:-73.9925555053014	Category:4bf58dd8d48988d116941735
venueId:4e613df262e13e3bce1f28e0		checkinsCount:10046		lat: 40.65946654883737	lng:-73.98791845009258	Category:4bf58dd8d48988d117941735
venueId:49eb18e4f964a520a5661fe3		checkinsCount:5056		lat: 40.66543225851896	lng:-73.98278771639265	Category:4bf58dd8d48988d123941735
venueId:4b86f610f964a52057a831e3		checkinsCount:2727		lat: 40.64029665454022	lng:-73.966568187885	Category:4bf58dd8d48988d123941735
venueId:4fe346a5e4b0ec930ee4cb4b		checkinsCount:970		lat: 40.66469729518189	lng:-73.99347945959305	Category:4bf58dd8d48988d116941735
venueId:4fff7a7ee4b077c7a9bba65b		checkinsCount:2983		lat: 40.665698794843074	lng:-73.98877355904663	Category:4bf58dd8d48988d116941735
venueId:4d35113b62a22d432a40049b		checkinsCount:5266		lat: 40.66336832182562	lng:-73.99132164635607	Category:4bf58dd8d48988d11b941735
venueId:4be5e6c62468c9281bbd0043		checkinsCount:6907		lat: 40.663289	lng:-73.984549	Category:4bf58dd8d48988d155941735
venueId:4dc08503fc60bc343161c023		checkinsCount:2740		lat: 40.660761	lng:-73.99402	Category:4bf58dd8d48988d116941735
venueId:4ae12770f964a520858521e3		checkinsCount:6858		lat: 40.66503528333333	lng:-73.98982658333334	Category:4bf58dd8d48988d116941735
venueId:51940c20498eeaa617325bdb		checkinsCount:1264		lat: 40.63923852177537	lng:-73.96858278964022	Category:4bf58dd8d48988d116941735
venueId:49eb9ebef964a52002671fe3		checkinsCount:3092		lat: 40.66190076747372	lng:-73.99306626319299	Category:4bf58dd8d48988d121941735
venueId:3fd66200f964a52077f11ee3		checkinsCount:3830		lat: 40.66492872550201	lng:-73.9898065714936	Category:4bf58dd8d48988d118941735
venueId:3fd66200f964a52077f11ee3		checkinsCount:887		lat: 40.66157457689133	lng:-73.99314086816442	Category:4bf58dd8d48988d155941735
venueId:51fc2ccc498e79eebaf498f4		checkinsCount:3303		lat: 40.66385801622577	lng:-73.98042317106521	Category:4bf58dd8d48988d116941735
venueId:51fc2ccc498e79eebaf498f4		checkinsCount:1617		lat: 40.660655	lng:-73.994494	Category:4bf58dd8d48988d116941735
venueId:3fd66200f964a5208beb1ee3		checkinsCount:661		lat: 40.663269	lng:-73.984503	Category:4bf58dd8d48988d116941735
venueId:4b6e3915f964a520acb22ce3		checkinsCount:2145		lat: 40.657539	lng:-73.97970736026764	Category:4bf58dd8d48988d11d941735
venueId:52b4f847498e51be82233fab		checkinsCount:1226		lat: 40.66065	lng:-73.990529	Category:4bf58dd8d48988d116941735
venueId:4a1099f5f964a520e5761fe3		checkinsCount:1011		lat: 40.638676	lng:-73.968408	Category:4bf58dd8d48988d116941735
venueId:4c80259ce63376b01416a43d		checkinsCount:224		lat: 40.65956429335148	lng:-73.9605012970247	Category:4bf58dd8d48988d155941735
venueId:4a2b36f6f964a520b9961fe3		checkinsCount:804		lat: 40.665520856222564	lng:-73.98269588993263	Category:4bf58dd8d48988d123941735
venueId:54249c15498ec9a9cdb22b9e		checkinsCount:128		lat: 40.662708079190125	lng:-73.99218247901545	Category:4bf58dd8d48988d123941735
venueId:4a7df2caf964a5204ef01fe3		checkinsCount:1067		lat: 40.656246069894195	lng:-74.00826786069122	Category:4bf58dd8d48988d11f941735
venueId:52607c7f498eb7820ce0f334		checkinsCount:1118		lat: 40.641969707988295	lng:-74.01708182377133	Category:4bf58dd8d48988d116941735
venueId:53825f8b498e1eadd02a5127		checkinsCount:309		lat: 40.652637159217264	lng:-73.97602113663933	Category:4bf58dd8d48988d116941735
venueId:4b3bcea9f964a520977b25e3		checkinsCount:287		lat: 40.63932556212176	lng:-73.96867275238037	Category:4bf58dd8d48988d11b941735
venueId:5360661d498e35b5bbb1f62a		checkinsCount:4099		lat: 40.66090993271911	lng:-73.96127617072706	Category:4bf58dd8d48988d116941735
venueId:524f3a38bce632e2af82f8f5		checkinsCount:142		lat: 40.650012	lng:-73.949869	Category:4bf58dd8d48988d116941735
venueId:4bb673376edc76b0d5f6301c		checkinsCount:1835		lat: 40.647691792888786	lng:-73.97290464197715	Category:4bf58dd8d48988d116941735
venueId:4c278fdc3703d13aed2da736		checkinsCount:791		lat: 40.642794581170335	lng:-73.97937862964275	Category:4bf58dd8d48988d11b941735
venueId:4a62bdc7f964a5207dc41fe3		checkinsCount:214		lat: 40.63973837002983	lng:-73.95471547504194	Category:4bf58dd8d48988d11f941735
venueId:4a62af49f964a52073c41fe3		checkinsCount:320		lat: 40.640894740056275	lng:-73.94932555041507	Category:4bf58dd8d48988d121941735
venueId:4caf57ae75ebb60cc078bbad		checkinsCount:216		lat: 40.63956980077272	lng:-73.9513349533081	Category:4bf58dd8d48988d121941735
venueId:4bdb9a92c79cc92895c383e9		checkinsCount:1892		lat: 40.660334507199494	lng:-73.98031412579742	Category:4bf58dd8d48988d116941735
venueId:51bbb5b3498ef9c24450297b		checkinsCount:419		lat: 40.64671106061107	lng:-73.99650953931729	Category:4bf58dd8d48988d120941735
venueId:49cabbc6f964a520d9581fe3		checkinsCount:378		lat: 40.65675328113802	lng:-73.96008228994852	Category:4bf58dd8d48988d116941735
venueId:4d358252c6cba35d92e13c7a		checkinsCount:68		lat: 40.66004688852821	lng:-73.9610752778438	Category:4bf58dd8d48988d11e941735
venueId:4d35095572a8b1f7c31fb6d0		checkinsCount:332		lat: 40.650327127423964	lng:-74.01405780804117	Category:4bf58dd8d48988d11f941735
venueId:53f74a0c498ecc0a79919089		checkinsCount:144		lat: 40.64593086898501	lng:-73.95195452071731	Category:4bf58dd8d48988d121941735
venueId:4f2b1d06e4b0e0a34667ef32		checkinsCount:181		lat: 40.66576	lng:-73.997744	Category:50327c8591d4c4b30a586d5d
venueId:4d27fded342d6dcb04edf3ca		checkinsCount:238		lat: 40.66359553365162	lng:-73.95856696909182	Category:4bf58dd8d48988d11f941735
venueId:4c2e72c6452620a1bae11b0f		checkinsCount:373		lat: 40.65951131990729	lng:-73.98786106009348	Category:4bf58dd8d48988d117941735
venueId:4dd75447fa76ad96d122ccc5		checkinsCount:317		lat: 40.65044629879346	lng:-73.95794706167582	Category:4bf58dd8d48988d11f941735
venueId:4fe132e0e4b0b79ab9c64686		checkinsCount:93		lat: 40.64688026400942	lng:-73.94884586334229	Category:4bf58dd8d48988d121941735
venueId:4d6ae5472bf05481857dc9ed		checkinsCount:127		lat: 40.639246	lng:-73.9687459	Category:4bf58dd8d48988d121941735
venueId:4a4512f4f964a520bba71fe3		checkinsCount:8566		lat: 40.66524243857114	lng:-73.98293137550354	Category:4bf58dd8d48988d1e0931735
venueId:4ccc11e772106dcb66ba9899		checkinsCount:3449		lat: 40.64172917935286	lng:-73.96334822511452	Category:4bf58dd8d48988d1e0931735
venueId:49ce8650f964a520505a1fe3		checkinsCount:3700		lat: 40.66112441175955	lng:-73.99006605148315	Category:4bf58dd8d48988d1e0931735
venueId:4a12a14cf964a5208d771fe3		checkinsCount:4234		lat: 40.662989	lng:-73.99174632428418	Category:4bf58dd8d48988d1e0931735
venueId:50001260e4b09359230a62cf		checkinsCount:2093		lat: 40.64679501607159	lng:-73.96994306438101	Category:4bf58dd8d48988d1e0931735
venueId:4ce1e6247e2e236a6aff921b		checkinsCount:3906		lat: 40.651534990296526	lng:-73.97576286551921	Category:4bf58dd8d48988d16d941735
venueId:51a4e0f6498e8382192fc87f		checkinsCount:1993		lat: 40.66081342302352	lng:-73.96133930844717	Category:4bf58dd8d48988d16d941735
venueId:4e1b155f7d8bb17ec63a95de		checkinsCount:2931		lat: 40.648365531841755	lng:-73.97875878919255	Category:4bf58dd8d48988d16d941735
venueId:4c90d5352626a1cd31e32c6b		checkinsCount:4379		lat: 40.63981002719504	lng:-73.96745208982401	Category:4bf58dd8d48988d1e0931735
venueId:4a397422f964a520769f1fe3		checkinsCount:6106		lat: 40.660393964448566	lng:-73.98030817508698	Category:4bf58dd8d48988d1e0931735
venueId:50f213ccf2e777d9466664e9		checkinsCount:819		lat: 40.65030727676827	lng:-74.00883078575134	Category:4bf58dd8d48988d16d941735
venueId:5320b02a498e847d9e93b82b		checkinsCount:260		lat: 40.65697147386127	lng:-73.95991583483008	Category:4bf58dd8d48988d16d941735
venueId:53f5e375498ea900654d8218		checkinsCount:156		lat: 40.65948554828679	lng:-73.98150214195937	Category:4bf58dd8d48988d16d941735
venueId:436d4780f964a520c6291fe3		checkinsCount:3692		lat: 40.665361358449246	lng:-73.98285084705843	Category:4bf58dd8d48988d16d941735
venueId:4ddc355cd164236dd36ec9f8		checkinsCount:2049		lat: 40.66342323687131	lng:-73.98448649798601	Category:4bf58dd8d48988d16d941735
venueId:50e82ab2e4b0d1b6c5a81e34		checkinsCount:920		lat: 40.66066648172052	lng:-73.96080550707151	Category:4bf58dd8d48988d16d941735
venueId:4ddd3878e4cdb993eabc64fb		checkinsCount:1353		lat: 40.653186	lng:-74.002805	Category:4bf58dd8d48988d16d941735
venueId:4b54bf68f964a52043ca27e3		checkinsCount:1124		lat: 40.63976686940524	lng:-73.96761279883185	Category:4bf58dd8d48988d1e0931735
venueId:49d7cb80f964a520645d1fe3		checkinsCount:4362		lat: 40.66074587479589	lng:-73.98003290350556	Category:4bf58dd8d48988d1e0931735
venueId:50c91db9e4b05a3aa9fe6457		checkinsCount:533		lat: 40.66141732402505	lng:-73.99698011558338	Category:4bf58dd8d48988d16d941735
venueId:4a064bcaf964a520e4721fe3		checkinsCount:1277		lat: 40.66347279674142	lng:-73.99139051311097	Category:4bf58dd8d48988d1e0931735
venueId:4a9ff2d3f964a520ae3d20e3		checkinsCount:434		lat: 40.641594051780665	lng:-74.00308602476191	Category:4bf58dd8d48988d1dc931735
venueId:5250291611d2a261e0f1ae6d		checkinsCount:68		lat: 40.64179177752804	lng:-74.01750070642437	Category:4bf58dd8d48988d16d941735
venueId:5389f295498e264f18c5d652		checkinsCount:87		lat: 40.66003553829078	lng:-73.95340101314287	Category:4bf58dd8d48988d16d941735
venueId:5388c5cb498e0c921f9a5763		checkinsCount:119		lat: 40.664383	lng:-73.983749	Category:4bf58dd8d48988d1e0931735
venueId:4cb0d820eb65b1f70ae16fcd		checkinsCount:1883		lat: 40.63816816635416	lng:-74.00635696743166	Category:4bf58dd8d48988d1dc931735
venueId:4c7447221b30a093c93fec09		checkinsCount:1046		lat: 40.643530754064116	lng:-73.97789789636364	Category:4bf58dd8d48988d16d941735
venueId:4bae7667f964a5206db53be3		checkinsCount:87		lat: 40.66480297747292	lng:-73.98948669433594	Category:4bf58dd8d48988d1e0931735
venueId:518ef304498e8b593238fe41		checkinsCount:153		lat: 40.63668928640695	lng:-74.00836541328833	Category:4bf58dd8d48988d1dc931735
venueId:4c62c0cb4b5176b0e3620817		checkinsCount:359		lat: 40.660245	lng:-73.994545	Category:4bf58dd8d48988d1e0931735
venueId:50a7d20be4b02dc98cf83277		checkinsCount:570		lat: 40.66031870461638	lng:-73.9839183260845	Category:4bf58dd8d48988d16d941735
venueId:51ae41f7498e1c5deebbf9c8		checkinsCount:71		lat: 40.642424579892165	lng:-74.00227114964419	Category:4bf58dd8d48988d1dc931735
venueId:4c03ebf6f56c2d7f4b801d66		checkinsCount:204		lat: 40.654722814884856	lng:-74.00417408153223	Category:4bf58dd8d48988d16d941735
venueId:508be84ce4b09ddc7e804df9		checkinsCount:160		lat: 40.65852021017861	lng:-73.97814468603534	Category:4bf58dd8d48988d16d941735
venueId:4d933246f4992c0fad2e8f97		checkinsCount:441		lat: 40.64688209188157	lng:-74.02158046062128	Category:4bf58dd8d48988d1e0931735
venueId:5377ba82498e56cc0ad2b0e2		checkinsCount:0		lat: 40.6501	lng:-73.94958	Category:4bf58dd8d48988d16d941735
venueId:4d52d8b89d493704c734dd39		checkinsCount:632		lat: 40.65651845600135	lng:-74.00211046963409	Category:4bf58dd8d48988d1e0931735
venueId:52489689498e5bdb5c023a79		checkinsCount:47		lat: 40.636646	lng:-74.011447	Category:4bf58dd8d48988d16d941735
venueId:4b7585b7f964a52070112ee3		checkinsCount:120		lat: 40.65531776276142	lng:-73.96061609332513	Category:4bf58dd8d48988d1e0931735
venueId:4deff41fc65b0270f3a1510f		checkinsCount:134		lat: 40.64069873904242	lng:-73.99433454375975	Category:4bf58dd8d48988d1e0931735
venueId:53af50ee498e1d9ef5e10394		checkinsCount:2		lat: 40.640765	lng:-74.014636	Category:4bf58dd8d48988d1dc931735
venueId:5330ec5d498e5a3346be0b06		checkinsCount:2		lat: 40.65306885190013	lng:-73.9589285808317	Category:4bf58dd8d48988d1dc931735
venueId:4c1f3ed68b3aa593a8259d5f		checkinsCount:93		lat: 40.6625932569434	lng:-73.9346187302167	Category:4bf58dd8d48988d16d941735
venueId:52d96175498e1ca97910ce61		checkinsCount:71		lat: 40.65681079089812	lng:-73.96403789520264	Category:4bf58dd8d48988d16d941735
venueId:4e4dcb1dbd41b76bef933483		checkinsCount:38		lat: 40.65516123131658	lng:-73.92274683743103	Category:4bf58dd8d48988d1e0931735
venueId:4ea98aa9e3005b03fea73eec		checkinsCount:18		lat: 40.64890136631751	lng:-74.01432176578072	Category:4bf58dd8d48988d1e0931735
venueId:4dc2a0e0d1643ed27a530c2e		checkinsCount:30		lat: 40.64264713121068	lng:-74.00919556617737	Category:4bf58dd8d48988d1e0931735
venueId:4f32795419836c91c7db4d12		checkinsCount:7		lat: 40.64514	lng:-73.948859	Category:4bf58dd8d48988d1e0931735
venueId:4dd184bf52b15d0acc69cdbd		checkinsCount:15		lat: 40.643396847238996	lng:-74.00227688821347	Category:4bf58dd8d48988d1e0931735
venueId:5298f08211d22599cfae929f		checkinsCount:17		lat: 40.650935	lng:-74.004229	Category:4bf58dd8d48988d1e0931735
venueId:42893400f964a52052231fe3		checkinsCount:61519		lat: 40.66390776998241	lng:-73.970947265625	Category:4bf58dd8d48988d163941735
venueId:4a4ff7a8f964a520ddaf1fe3		checkinsCount:9709		lat: 40.64779198054751	lng:-74.00373458862305	Category:4bf58dd8d48988d163941735
venueId:4bb79c85b35776b087dfc701		checkinsCount:3831		lat: 40.639652516059975	lng:-74.03231620788574	Category:4bf58dd8d48988d163941735
venueId:4b8c3421f964a520edc332e3		checkinsCount:3278		lat: 40.65085265211483	lng:-73.96828651428223	Category:4bf58dd8d48988d163941735
venueId:4b80468ff964a520456330e3		checkinsCount:2891		lat: 40.66071747831128	lng:-73.9685869216919	Category:4bf58dd8d48988d15f941735
venueId:4a68a742f964a520c3ca1fe3		checkinsCount:1618		lat: 40.65133036056765	lng:-73.97039648715979	Category:4e39a956bd410d7aed40cbc3
venueId:4edbdcdf9a5286d9211cacd6		checkinsCount:4892		lat: 40.655237463082294	lng:-73.96229785129567	Category:4bf58dd8d48988d163941735
venueId:4c46ecacc047be9a24d62e79		checkinsCount:1589		lat: 40.663488542595395	lng:-73.97226756227025	Category:4bf58dd8d48988d1e5941735
venueId:4ecadeed99119fe1ad742cda		checkinsCount:2831		lat: 40.66424957789683	lng:-73.97667646408081	Category:4bf58dd8d48988d163941735
venueId:4a7d84e8f964a520beee1fe3		checkinsCount:4393		lat: 40.663418	lng:-73.97707103207607	Category:4bf58dd8d48988d163941735
venueId:4ba26fedf964a520eaf837e3		checkinsCount:3668		lat: 40.66149878833944	lng:-73.97472381591797	Category:4bf58dd8d48988d1e8941735
venueId:4ca949678882199c701b45d4		checkinsCount:1587		lat: 40.6550201493737	lng:-73.97300720214844	Category:4bf58dd8d48988d1e7941735
venueId:4c391f1893db0f47bef62292		checkinsCount:462		lat: 40.63880301646404	lng:-74.0337905113414	Category:4bf58dd8d48988d1e5941735
venueId:5267c3e1498ef981529b551d		checkinsCount:1905		lat: 40.65710380039011	lng:-73.96375894546509	Category:4bf58dd8d48988d168941735
venueId:5267c3e1498ef981529b551d		checkinsCount:13344		lat: 40.65200850751782	lng:-73.95901679992676	Category:4f2a25ac4b909258e854f55f
venueId:5267c3e1498ef981529b551d		checkinsCount:1363		lat: 40.638136921263715	lng:-73.93813848495483	Category:4bf58dd8d48988d163941735
venueId:4c329d79213c2d7f4fcd355d		checkinsCount:1377		lat: 40.6631887	lng:-73.972048	Category:4bf58dd8d48988d1e5941735
venueId:4c56c650d12a20a12f2065bd		checkinsCount:2423		lat: 40.639032474561056	lng:-74.036865234375	Category:4bf58dd8d48988d1e0941735
venueId:4b16b4b0f964a52052bc23e3		checkinsCount:6607		lat: 40.660782587829814	lng:-73.95596981048584	Category:4f2a25ac4b909258e854f55f
venueId:4bdc9a15afe8c9b6ae305085		checkinsCount:7940		lat: 40.65378295079248	lng:-73.93064975738525	Category:4f2a25ac4b909258e854f55f
venueId:4e9982340aaf0a73a1def55c		checkinsCount:4846		lat: 40.654857361397404	lng:-73.96931648254395	Category:4bf58dd8d48988d161941735
venueId:4c6b8bf096eaa5937bc622df		checkinsCount:5187		lat: 40.64572136179469	lng:-74.0102820248073	Category:4f2a25ac4b909258e854f55f
venueId:4b92de14f964a520de2234e3		checkinsCount:2081		lat: 40.63982152721227	lng:-73.96290052549782	Category:4f2a25ac4b909258e854f55f
venueId:4f5e0565e4b008b158a75a13		checkinsCount:79703		lat: 40.65016889724004	lng:-73.94957542419434	Category:5345731ebcbc57f1066c39b2
venueId:4fb852bbe4b018d6ec3b18bc		checkinsCount:2789		lat: 40.663	lng:-73.99	Category:4f2a25ac4b909258e854f55f
venueId:4c97edbdf419a09395806b88		checkinsCount:471		lat: 40.64956241759432	lng:-73.97323752963396	Category:4bf58dd8d48988d15b941735
venueId:4e9d1ef8754ae3862f13d0a1		checkinsCount:851		lat: 40.65684334757191	lng:-73.96807193756104	Category:4bf58dd8d48988d163941735
venueId:4ac8fcb6f964a520c5bd20e3		checkinsCount:2224		lat: 40.646098782777614	lng:-73.97086143493652	Category:4f2a25ac4b909258e854f55f
venueId:4b55b2b1f964a52045ec27e3		checkinsCount:1889		lat: 40.650726483587675	lng:-73.97681057453156	Category:4bf58dd8d48988d1e7941735
venueId:50440fefe4b003e2b4525b88		checkinsCount:1187		lat: 40.63711109090635	lng:-74.036865234375	Category:4bf58dd8d48988d15a941735
venueId:4ab3fd14f964a5206b6f20e3		checkinsCount:1346		lat: 40.66249168996189	lng:-73.99334907531738	Category:4f2a25ac4b909258e854f55f
venueId:4bb91d8498c7ef3bcdcf3102		checkinsCount:215		lat: 40.63863199396125	lng:-73.9473394487091	Category:4bf58dd8d48988d1e7941735
venueId:4f9860d3e4b02ab084c80378		checkinsCount:1190		lat: 40.66110813446929	lng:-73.98837089538574	Category:4bf58dd8d48988d1e5941735
venueId:4df7b940fa76bd19925b5b85		checkinsCount:6623		lat: 40.656735536301305	lng:-73.9788965316875	Category:4f2a25ac4b909258e854f55f
venueId:4b7305b2f964a52063962de3		checkinsCount:967		lat: 40.64035139458128	lng:-73.97346136756222	Category:4bf58dd8d48988d159941735
venueId:4ccc333c7c2ff04d9d61977e		checkinsCount:1932		lat: 40.64681514092294	lng:-73.96665573120117	Category:4f2a25ac4b909258e854f55f
venueId:4ddcd5fb22713339cd1e2cbc		checkinsCount:908		lat: 40.64402728416046	lng:-74.01781630233667	Category:4bf58dd8d48988d165941735
venueId:4dab8b094df01c19b1a2d1df		checkinsCount:2066		lat: 40.66088025198849	lng:-73.97970199584961	Category:4bf58dd8d48988d164941735
venueId:4e6b670f45ddadf2d0e3002d		checkinsCount:272		lat: 40.65726264720548	lng:-73.99006482373646	Category:4bf58dd8d48988d165941735
venueId:4c534e76728920a1b106db80		checkinsCount:245		lat: 40.661024	lng:-73.97937338333334	Category:4bf58dd8d48988d164941735
venueId:4c0be639bbc676b090374cd5		checkinsCount:718		lat: 40.64000501720974	lng:-74.027008521495	Category:4bf58dd8d48988d165941735
venueId:4b041440f964a520435122e3		checkinsCount:4726		lat: 40.6388696475824	lng:-74.00613784790039	Category:4f2a25ac4b909258e854f55f
venueId:4c0bd4edffb8c9b64ccc6d61		checkinsCount:389		lat: 40.661320190726286	lng:-73.98947945148703	Category:4bf58dd8d48988d1e7941735
venueId:4bf18e26324cc9b64c2ccc92		checkinsCount:372		lat: 40.645802503321065	lng:-73.9803083865711	Category:4bf58dd8d48988d1e7941735
venueId:4f451ae3e4b062c96246464f		checkinsCount:209		lat: 40.65659277210832	lng:-73.95497377436354	Category:4bf58dd8d48988d1e7941735
venueId:4bb742801344b7133a7f9e04		checkinsCount:243		lat: 40.658665	lng:-73.962823	Category:4bf58dd8d48988d1e7941735
venueId:4cd085c29d87224bd3a9553b		checkinsCount:277		lat: 40.636913253166064	lng:-74.0004749690027	Category:4bf58dd8d48988d167941735
venueId:4bd3554b9854d13a9c88fd4d		checkinsCount:133		lat: 40.65017717820411	lng:-74.01163626567212	Category:4bf58dd8d48988d1e7941735
venueId:4b91848df964a52068c233e3		checkinsCount:127		lat: 40.64684770247412	lng:-74.00201797485352	Category:4bf58dd8d48988d15e941735
venueId:4cdb0e8799026dcb26450a81		checkinsCount:201		lat: 40.65746192135486	lng:-73.97135496139526	Category:4bf58dd8d48988d165941735
venueId:4b190c9ff964a52074d723e3		checkinsCount:6246		lat: 40.65509664890871	lng:-73.94460135020307	Category:4bf58dd8d48988d1b3941735
venueId:4b8bc34cf964a52023aa32e3		checkinsCount:216		lat: 40.66110198312928	lng:-73.9938237892463	Category:4bf58dd8d48988d1ad941735
venueId:4b8bc34cf964a52023aa32e3		checkinsCount:1157		lat: 40.654474124346656	lng:-73.94605363788459	Category:4bf58dd8d48988d1a7941735
venueId:4b8bc34cf964a52023aa32e3		checkinsCount:440		lat: 40.64065951841864	lng:-73.96577611646958	Category:4bf58dd8d48988d12f941735
venueId:4cf66a2664e3721e5d0e21c8		checkinsCount:154		lat: 40.66399527829901	lng:-73.9273395319719	Category:4bf58dd8d48988d198941735
venueId:4b4b94b5f964a520f3a026e3		checkinsCount:1015		lat: 40.639236827169434	lng:-74.01512511317839	Category:4bf58dd8d48988d1b2941735
venueId:4c1792f730d30f4795b136a9		checkinsCount:957		lat: 40.65408922638183	lng:-73.94627750734799	Category:4bf58dd8d48988d1ab941735
venueId:4cbef99d575d236ae8febb8e		checkinsCount:290		lat: 40.66083141992703	lng:-73.92273187637329	Category:4bf58dd8d48988d1b3941735
venueId:4c5d4dbf9b28d13aaf205970		checkinsCount:1282		lat: 40.66418313901225	lng:-73.94069791428524	Category:4bf58dd8d48988d198941735
venueId:5117b1b672da29ad9cc3ab61		checkinsCount:12		lat: 40.66535677685855	lng:-73.95938202951623	Category:4cae28ecbf23941eb1190695
venueId:4b4f9a5df964a5201a0d27e3		checkinsCount:286		lat: 40.65482044262501	lng:-73.94609381960223	Category:4bf58dd8d48988d19b941735
venueId:50990d7ce4b09681c9cba93e		checkinsCount:515		lat: 40.661068625095616	lng:-73.98877355904663	Category:4bf58dd8d48988d199941735
venueId:4fae75eee4b0c29a764f08c6		checkinsCount:279		lat: 40.6561199470881	lng:-73.94680560864549	Category:4bf58dd8d48988d19b941735
venueId:4b1bebfef964a52008ff23e3		checkinsCount:7		lat: 40.648517386930614	lng:-73.95842347218186	Category:4bf58dd8d48988d1ad941735
venueId:4d36e796e4b4a093331a2836		checkinsCount:86		lat: 40.642826230729824	lng:-74.01238203048706	Category:4bf58dd8d48988d1ad941735
venueId:50faf705e4b053e00467f267		checkinsCount:473		lat: 40.644545	lng:-73.979291	Category:4bf58dd8d48988d1a3941735
venueId:4e4c2a9ccc3f74aec4ed58bb		checkinsCount:243		lat: 40.661117956696565	lng:-73.9477527432303	Category:4bf58dd8d48988d1a7941735
venueId:4c6634858e9120a1d07dd764		checkinsCount:30		lat: 40.66591206523518	lng:-73.9551287537907	Category:4bf58dd8d48988d1b1941735
venueId:4c9cad469975a143142e34cf		checkinsCount:327		lat: 40.65213874349124	lng:-73.95824432373047	Category:4bf58dd8d48988d12f941735
venueId:4b6095e4f964a520e3ee29e3		checkinsCount:78		lat: 40.659089719692986	lng:-73.98837089538574	Category:4bf58dd8d48988d1a5941735
venueId:4b7d5a16f964a520abb92fe3		checkinsCount:6		lat: 40.661083585353964	lng:-73.98314354351062	Category:4bf58dd8d48988d1a5941735
venueId:4fcbe33c10816d5c2b5f8406		checkinsCount:43		lat: 40.65088224970914	lng:-74.01081568866654	Category:4bf58dd8d48988d1a0941735
venueId:53110be0498ebbd58c2c19a8		checkinsCount:91		lat: 40.64706696211381	lng:-73.94388381274065	Category:4bf58dd8d48988d1a0941735
venueId:4e8218aaf790751739d4a97d		checkinsCount:253		lat: 40.65412034228787	lng:-73.94651285701735	Category:4bf58dd8d48988d1b2941735
venueId:4c62ec0d86b6be9a73438d34		checkinsCount:55		lat: 40.638035650358866	lng:-73.97180266493736	Category:4bf58dd8d48988d1a8941735
venueId:50290116e4b0d914663ef411		checkinsCount:67		lat: 40.643307014724236	lng:-73.9223908990705	Category:4bf58dd8d48988d1a8941735
venueId:4d554aae143ca0932c93adfc		checkinsCount:58		lat: 40.65907001495361	lng:-73.923143	Category:4bf58dd8d48988d1a8941735
venueId:4d094200611ff04da6331ffb		checkinsCount:135		lat: 40.652993005689154	lng:-74.00501990464066	Category:4bf58dd8d48988d1a8941735
venueId:4c878c8ce602b1f70298c87a		checkinsCount:150		lat: 40.65855573450573	lng:-73.92840157712097	Category:4bf58dd8d48988d1a8941735
venueId:4c9d2499542b224b3d2ae79f		checkinsCount:5		lat: 40.650520573509844	lng:-73.95847513108173	Category:4bf58dd8d48988d1a8941735
venueId:4c81615e74d7b60c363d76d8		checkinsCount:248		lat: 40.65417404335855	lng:-73.9400148049087	Category:4bf58dd8d48988d1a8941735
venueId:4bbe0bc7a0a0c9b6ac601c0f		checkinsCount:19		lat: 40.66111158394653	lng:-73.98892851126816	Category:4bf58dd8d48988d1a8941735
venueId:4ccf9c765845bfb7d52db10d		checkinsCount:357		lat: 40.65482300850968	lng:-73.94584124866704	Category:4bf58dd8d48988d1b3941735
venueId:4c61732d12e5c9287096214c		checkinsCount:314		lat: 40.64801999969977	lng:-73.93012380014538	Category:4bf58dd8d48988d1a7941735
venueId:50378fe2e4b01fa351fcc2cf		checkinsCount:193		lat: 40.63852770963449	lng:-73.98878931999207	Category:4bf58dd8d48988d1a7941735
venueId:4c01764acebfef3ba54097fd		checkinsCount:82		lat: 40.649392039526816	lng:-73.95825127574912	Category:4bf58dd8d48988d1ae941735
venueId:4baf9947f964a520b10e3ce3		checkinsCount:83		lat: 40.641541927508	lng:-73.99425420044332	Category:4bf58dd8d48988d1ab941735
venueId:4f954ba0e4b0f6392688848f		checkinsCount:1		lat: 40.658503716866974	lng:-73.97858619689941	Category:4bf58dd8d48988d1ab941735
venueId:4ee6669e9adf398201543298		checkinsCount:24		lat: 40.65062458532233	lng:-73.93898726609878	Category:4bf58dd8d48988d1ab941735
venueId:5314915d498e4af343f59dcc		checkinsCount:98		lat: 40.65220693561813	lng:-74.00547324457386	Category:4bf58dd8d48988d1ab941735
venueId:522f11f611d25ac8e027a42f		checkinsCount:349		lat: 40.66075942961672	lng:-73.96213713785703	Category:4bf58dd8d48988d198941735
venueId:4f626185e4b071dd73fd93c3		checkinsCount:127		lat: 40.641173417891814	lng:-73.96562114559453	Category:4bf58dd8d48988d198941735
venueId:4b6a2a91f964a52032cb2be3		checkinsCount:78		lat: 40.652404	lng:-74.007363	Category:4bf58dd8d48988d198941735
venueId:4bbd03758a4fb713fc7a3c9d		checkinsCount:965		lat: 40.66098840749647	lng:-73.98690264457271	Category:4bf58dd8d48988d198941735
venueId:4c0795162e80a59372c575f9		checkinsCount:2103		lat: 40.660985992629186	lng:-73.98625987220174	Category:4bf58dd8d48988d198941735
venueId:46f52f99f964a520ef4a1fe3		checkinsCount:8964		lat: 40.66530754367275	lng:-73.98940086364746	Category:4bf58dd8d48988d14e941735
venueId:46f52f99f964a520ef4a1fe3		checkinsCount:9313		lat: 40.665610864239476	lng:-73.98264423752961	Category:4bf58dd8d48988d142941735
venueId:4e5554b118a8e7aa2cd8bc59		checkinsCount:3667		lat: 40.665628720198114	lng:-73.98228267031958	Category:4bf58dd8d48988d14e941735
venueId:48c3c327f964a520d9511fe3		checkinsCount:3031		lat: 40.6654806	lng:-73.989363	Category:4bf58dd8d48988d16f941735
venueId:4d99d71ff9574eb9e7804294		checkinsCount:1248		lat: 40.66036751356021	lng:-73.99064540863037	Category:4bf58dd8d48988d1ca941735
venueId:4cacf63f76d3a0932b3b366b		checkinsCount:2230		lat: 40.660796	lng:-73.990339	Category:4bf58dd8d48988d14e941735
venueId:4a44257bf964a52037a71fe3		checkinsCount:6000		lat: 40.660143057292565	lng:-73.99126425737475	Category:4bf58dd8d48988d1ca941735
venueId:47ba53f2f964a520c54d1fe3		checkinsCount:7289		lat: 40.639762793778125	lng:-73.96755540277302	Category:4bf58dd8d48988d157941735
venueId:44db29bef964a52092361fe3		checkinsCount:5745		lat: 40.66352220818551	lng:-73.9843602377087	Category:4bf58dd8d48988d1c1941735
venueId:4b4b90e4f964a5207aa026e3		checkinsCount:1401		lat: 40.661602	lng:-73.99323	Category:4bf58dd8d48988d1ca941735
venueId:4a8b40c3f964a520f00b20e3		checkinsCount:952		lat: 40.65492408264026	lng:-73.95966902180399	Category:4bf58dd8d48988d144941735
venueId:4a6cba95f964a52073d11fe3		checkinsCount:839		lat: 40.64653836709648	lng:-73.97066831588745	Category:4bf58dd8d48988d1ca941735
venueId:5074523d45b0e4539638b474		checkinsCount:1484		lat: 40.65880687197466	lng:-73.99603322313953	Category:4bf58dd8d48988d16a941735
venueId:4f7b0c3ae4b054bfe4877950		checkinsCount:3906		lat: 40.651534990296526	lng:-73.97576286551921	Category:4bf58dd8d48988d16d941735
venueId:4ce1e6247e2e236a6aff921b		checkinsCount:1997		lat: 40.645177	lng:-73.999461	Category:4bf58dd8d48988d14a941735
venueId:49e4cedbf964a5204f631fe3		checkinsCount:7206		lat: 40.66003672359454	lng:-73.98071013200064	Category:4bf58dd8d48988d179941735
venueId:49bf04caf964a52000551fe3		checkinsCount:1993		lat: 40.66081342302352	lng:-73.96133930844717	Category:4bf58dd8d48988d16d941735
venueId:51a4e0f6498e8382192fc87f		checkinsCount:486		lat: 40.6472384398491	lng:-73.96890878677368	Category:4bf58dd8d48988d16a941735
venueId:529907de11d20a7c27a050f3		checkinsCount:1709		lat: 40.654421675172365	lng:-73.95944516785616	Category:4bf58dd8d48988d144941735
venueId:4bdcade72a3a0f470fecb3b6		checkinsCount:1939		lat: 40.6487346773711	lng:-73.9775248416076	Category:4bf58dd8d48988d14e941735
venueId:50774a72e4b0347051bd3282		checkinsCount:944		lat: 40.64995077913798	lng:-74.00891055923843	Category:4bf58dd8d48988d1c1941735
venueId:4ab912baf964a520e77d20e3		checkinsCount:16628		lat: 40.65052298546056	lng:-73.96298110485071	Category:4bf58dd8d48988d1fd931735
venueId:4c9521df82b56dcbc5fbd5aa		checkinsCount:2931		lat: 40.648365531841755	lng:-73.97875878919255	Category:4bf58dd8d48988d16d941735
venueId:4b636f5df964a5209d792ae3		checkinsCount:15505		lat: 40.66161146080779	lng:-73.96224590222664	Category:4bf58dd8d48988d1fd931735
venueId:4e1b155f7d8bb17ec63a95de		checkinsCount:1694		lat: 40.660135	lng:-73.983866	Category:4bf58dd8d48988d110941735
venueId:4acd43fdf964a5209ecb20e3		checkinsCount:5040		lat: 40.660619813914266	lng:-73.97944450378418	Category:4bf58dd8d48988d1fd931735
venueId:4ec7fa185c5ce271be2b2bfa		checkinsCount:1579		lat: 40.65139249735026	lng:-74.00377464891751	Category:4bf58dd8d48988d1c1941735
venueId:4b5cff55f964a520424e29e3		checkinsCount:1757		lat: 40.65279	lng:-73.975887	Category:4bf58dd8d48988d10c941735
venueId:4b5d272ef964a520c15429e3		checkinsCount:4559		lat: 40.65078398641498	lng:-73.94958959708242	Category:4bf58dd8d48988d1fd931735
venueId:4e7d174cb6340a4da75a2cca		checkinsCount:5854		lat: 40.66390755948686	lng:-73.98411345601794	Category:4bf58dd8d48988d10d941735
venueId:4b76cf7af964a520d3602ee3		checkinsCount:8433		lat: 40.65526229575358	lng:-73.9615085721016	Category:4bf58dd8d48988d1fd931735
venueId:408c5100f964a520d3f21ee3		checkinsCount:1099		lat: 40.665112899937576	lng:-73.98648943400983	Category:4bf58dd8d48988d110941735
venueId:4c0a9f936071a593f3e4df32		checkinsCount:4453		lat: 40.64303512949441	lng:-73.97831686468848	Category:4bf58dd8d48988d1fd931735
venueId:4eb322976da1af509d30bdd7		checkinsCount:945		lat: 40.65223723367104	lng:-74.00299420802065	Category:4bf58dd8d48988d1cb941735
venueId:4c1290c98aedd13a88515137		checkinsCount:5927		lat: 40.64639997975282	lng:-73.99432003498077	Category:4bf58dd8d48988d1fd931735
venueId:4a87839bf964a520940420e3		checkinsCount:837		lat: 40.64443156066486	lng:-74.01074682889745	Category:4bf58dd8d48988d1c1941735
venueId:4b93d226f964a520625334e3		checkinsCount:5244		lat: 40.66481089473042	lng:-73.92263775961564	Category:4bf58dd8d48988d1fd931735
venueId:4b5415ecf964a520d3b127e3		checkinsCount:6907		lat: 40.663289	lng:-73.984549	Category:4bf58dd8d48988d155941735
venueId:4be5e6c62468c9281bbd0043		checkinsCount:1597		lat: 40.6402286468158	lng:-73.99513223628907	Category:4bf58dd8d48988d147941735
venueId:4b22e3c3f964a520a84f24e3		checkinsCount:7507		lat: 40.649485135359	lng:-73.9758825302124	Category:4bf58dd8d48988d1fd931735
venueId:4aeb3f58f964a5201ac021e3		checkinsCount:349		lat: 40.640149279280166	lng:-74.00476167255299	Category:4bf58dd8d48988d145941735
venueId:4c7bb556df08a1cd062ee15d		checkinsCount:1703		lat: 40.66324615698135	lng:-73.95086964429258	Category:4bf58dd8d48988d1fd931735
venueId:4b891e3df964a520b21d32e3		checkinsCount:3744		lat: 40.6413120105605	lng:-74.01778936386108	Category:4bf58dd8d48988d1fd931735
venueId:51d868ac498ef583276dcf4b		checkinsCount:880		lat: 40.64677206614652	lng:-73.96996602252206	Category:4bf58dd8d48988d149941735
venueId:4cf3c1946195721e6e904ec1		checkinsCount:958		lat: 40.660184	lng:-73.998482	Category:4bf58dd8d48988d1fa931735
venueId:4f235fb4e4b04f6e681be393		checkinsCount:450		lat: 40.6624424263354	lng:-73.99638902569743	Category:4bf58dd8d48988d1c1941735
venueId:4bf99c94328d76b0f4a114ec		checkinsCount:1677		lat: 40.64000942809261	lng:-73.94837379455566	Category:4bf58dd8d48988d1fd931735
venueId:4d40a703c5eaa1cd5c81a350		checkinsCount:819		lat: 40.65030727676827	lng:-74.00883078575134	Category:4bf58dd8d48988d16d941735
venueId:4ce2a63300166ea8cfe34788		checkinsCount:1487		lat: 40.64920451641804	lng:-74.00968230066496	Category:4bf58dd8d48988d1fd931735
venueId:50f213ccf2e777d9466664e9		checkinsCount:565		lat: 40.655170365770246	lng:-73.9564317240562	Category:4bf58dd8d48988d10f941735
venueId:4bb93b70cf2fc9b6fe64a002		checkinsCount:1365		lat: 40.6412338116017	lng:-73.96399107402843	Category:52af39fb3cf9994f4e043be9
venueId:4b8154cef964a520d59f30e3		checkinsCount:2374		lat: 40.66534009619973	lng:-73.992919921875	Category:4bf58dd8d48988d1fd931735
venueId:4c330a2766e40f47ff4fc78b		checkinsCount:1619		lat: 40.656426909666855	lng:-73.94989956444915	Category:4bf58dd8d48988d1fd931735
venueId:4aa2d9f1f964a520534220e3		checkinsCount:3608		lat: 40.638221	lng:-74.006518	Category:4bf58dd8d48988d1f5931735
venueId:4fd6211a7b0c4fe0bedb171d		checkinsCount:814		lat: 40.65655033693599	lng:-74.00341272354126	Category:4bf58dd8d48988d1fa931735
venueId:46066f16f964a520cb441fe3		checkinsCount:2047		lat: 40.64056372357759	lng:-73.96573593884727	Category:4eb1bd1c3b7b55596b4a748f
venueId:4afa2432f964a520081722e3		checkinsCount:2302		lat: 40.664897142398	lng:-73.98326406544956	Category:4bf58dd8d48988d179941735
venueId:4bd9e2225f34b713dde03579		checkinsCount:1769		lat: 40.660391929765225	lng:-73.9980697631836	Category:4bf58dd8d48988d1fd931735
venueId:49ff9127f964a52033701fe3		checkinsCount:2335		lat: 40.647775	lng:-74.00757401249999	Category:4bf58dd8d48988d1c1941735
venueId:4af0c050f964a520d6de21e3		checkinsCount:4653		lat: 40.64432413516318	lng:-73.96453142166138	Category:4bf58dd8d48988d1fd931735
venueId:4b200f21f964a520ac2c24e3		checkinsCount:4681		lat: 40.64092453500213	lng:-73.96389145699993	Category:4bf58dd8d48988d1fd931735
venueId:49bc364ff964a5201f541fe3		checkinsCount:5677		lat: 40.665796751366905	lng:-73.97910888450723	Category:4bf58dd8d48988d147941735
venueId:4bf804ee8d30d13a1feaff17		checkinsCount:4703		lat: 40.654225267821765	lng:-74.00446327059542	Category:4bf58dd8d48988d1fd931735
venueId:4a862810f964a5209a0020e3		checkinsCount:1627		lat: 40.640198412943406	lng:-73.96666002204142	Category:4bf58dd8d48988d115941735
venueId:4b756492f964a520fe092ee3		checkinsCount:2033		lat: 40.64468843020829	lng:-74.01442855596542	Category:4bf58dd8d48988d1fd931735
venueId:49ee54faf964a5204d681fe3		checkinsCount:1869		lat: 40.66330993090269	lng:-73.98453241079356	Category:4bf58dd8d48988d1d2941735
venueId:4ad47540f964a520eee720e3		checkinsCount:957		lat: 40.64509749657613	lng:-73.948974609375	Category:4bf58dd8d48988d1fd931735
venueId:4b25858af964a520437324e3		checkinsCount:567		lat: 40.66139304501466	lng:-73.96080550707151	Category:4bf58dd8d48988d144941735
venueId:4e1acca2fa76194645a6d8b1		checkinsCount:385		lat: 40.663829348388965	lng:-73.93757510889809	Category:52f2ab2ebcbc57f1066b8b4c
venueId:4d0e9e455b8a8cfa5e50eb83		checkinsCount:1922		lat: 40.66337764263153	lng:-73.981235	Category:4bf58dd8d48988d110941735
venueId:4b7f1473f964a520fb1430e3		checkinsCount:2081		lat: 40.64089681515863	lng:-73.99429321289062	Category:4bf58dd8d48988d1fd931735
venueId:4a85fd26f964a520f4ff1fe3		checkinsCount:1138		lat: 40.66055470423683	lng:-73.95043373107909	Category:4bf58dd8d48988d16a941735
venueId:4db9d4d54b22153e34a4d7cd		checkinsCount:1296		lat: 40.65270444017787	lng:-74.0029827309249	Category:4bf58dd8d48988d1fe931735
venueId:4b47bad2f964a5203d3c26e3		checkinsCount:260		lat: 40.65697147386127	lng:-73.95991583483008	Category:4bf58dd8d48988d16d941735
venueId:537baf58498ee27a2f7aacb3		checkinsCount:161		lat: 40.64506213291601	lng:-74.01734577733103	Category:4f2a23984b9023bd5841ed2c
venueId:5320b02a498e847d9e93b82b		checkinsCount:583		lat: 40.65392690140375	lng:-73.95954274524996	Category:4bf58dd8d48988d1d3941735
venueId:4a89d100f964a520160920e3		checkinsCount:156		lat: 40.65948554828679	lng:-73.98150214195937	Category:4bf58dd8d48988d16d941735
venueId:4c837b86d34ca143d6c73580		checkinsCount:407		lat: 40.65364887955816	lng:-74.00642582878159	Category:4bf58dd8d48988d1fa931735
venueId:4c2617cb905a0f47d7906260		checkinsCount:102		lat: 40.637809	lng:-73.92597	Category:4bf58dd8d48988d1ef941735
venueId:4bc3b306dce4eee15db7719d		checkinsCount:266		lat: 40.646784	lng:-73.996962	Category:4bf58dd8d48988d1fa931735
venueId:4f3b39dee4b0aedfcf4f0330		checkinsCount:399		lat: 40.665331482525396	lng:-73.99257846074144	Category:52f2ab2ebcbc57f1066b8b52
venueId:4da61b1ea86ecc5168c8828c		checkinsCount:90		lat: 40.647164861824685	lng:-73.98034856115183	Category:4bf58dd8d48988d1fe931735
venueId:4d292dc1915fa093db2d040a		checkinsCount:210		lat: 40.6435589055766	lng:-73.97765815258026	Category:4bf58dd8d48988d1fe931735
venueId:4be2d92299feb713c3f081f6		checkinsCount:44		lat: 40.66460590495169	lng:-73.98255241100104	Category:4bf58dd8d48988d1ef941735
venueId:53fc9d37498ea0a7aae64952		checkinsCount:4		lat: 40.664208652437175	lng:-73.98357971778847	Category:4bf58dd8d48988d1ef941735
venueId:4c2de4987d85a5936c4a53f3		checkinsCount:75		lat: 40.64430927348952	lng:-73.98700020804806	Category:4bf58dd8d48988d1ef941735
venueId:505f4d8ee4b081c354de6e10		checkinsCount:135		lat: 40.645639960575	lng:-73.99495433392622	Category:4bf58dd8d48988d1fe931735
venueId:519d01a8498e118930b6d234		checkinsCount:10		lat: 40.650633	lng:-73.962839	Category:4bf58dd8d48988d1fd931735
venueId:4f37dc20e4b0b0eb8d9a4067		checkinsCount:18		lat: 40.651422	lng:-73.975707	Category:4bf58dd8d48988d1fd931735
venueId:5286babe498e96394a4181ba		checkinsCount:6		lat: 40.63835906982422	lng:-73.9788589477539	Category:4bf58dd8d48988d1fd931735
venueId:5044ad69e4b053a532f2dfb0		checkinsCount:32		lat: 40.650693	lng:-73.962873	Category:4bf58dd8d48988d1fd931735
venueId:4ec6e7c87ee537da7ddf9071		checkinsCount:166		lat: 40.64135540589175	lng:-73.96314159465135	Category:4bf58dd8d48988d1fe931735
venueId:4d05a86426adb1f77e05d970		checkinsCount:97		lat: 40.64730356252251	lng:-73.98004531860352	Category:4bf58dd8d48988d1fe931735
venueId:4be0906d4c55b651f575eab7		checkinsCount:425		lat: 40.66301198542513	lng:-73.99812785772731	Category:4bf58dd8d48988d1fa931735
venueId:5032c8d6e4b068ac48769863		checkinsCount:357		lat: 40.63919599649427	lng:-74.03705519018743	Category:4e74f6cabd41c4836eac4c31
venueId:4efd4f428b81b019087bad1d		checkinsCount:223		lat: 40.65042813862353	lng:-73.95863584757069	Category:4bf58dd8d48988d1fe931735
venueId:4dcea2cbc65bdac71365d753		checkinsCount:76		lat: 40.66384266351441	lng:-73.94794464111328	Category:4bf58dd8d48988d1fe931735
venueId:4dd2d4bc81dcfc9dcdc2124f		checkinsCount:458		lat: 40.6526759641946	lng:-74.00214672088623	Category:4bf58dd8d48988d1fe931735
venueId:4de829c3d22d09215a166c68		checkinsCount:78		lat: 40.645396527732736	lng:-73.97994107572931	Category:4bf58dd8d48988d1fe931735
venueId:4abd6aaaf964a5202d8a20e3		checkinsCount:517		lat: 40.649010181052155	lng:-74.01500461128414	Category:4bf58dd8d48988d1fa931735
venueId:42893400f964a52052231fe3		checkinsCount:61519		lat: 40.66390776998241	lng:-73.970947265625	Category:4bf58dd8d48988d163941735
venueId:4a4ff7a8f964a520ddaf1fe3		checkinsCount:9709		lat: 40.64779198054751	lng:-74.00373458862305	Category:4bf58dd8d48988d163941735
venueId:4bb79c85b35776b087dfc701		checkinsCount:3831		lat: 40.639652516059975	lng:-74.03231620788574	Category:4bf58dd8d48988d163941735
venueId:4b8c3421f964a520edc332e3		checkinsCount:3278		lat: 40.65085265211483	lng:-73.96828651428223	Category:4bf58dd8d48988d163941735
venueId:4b80468ff964a520456330e3		checkinsCount:2891		lat: 40.66071747831128	lng:-73.9685869216919	Category:4bf58dd8d48988d15f941735
venueId:4a68a742f964a520c3ca1fe3		checkinsCount:1618		lat: 40.65133036056765	lng:-73.97039648715979	Category:4e39a956bd410d7aed40cbc3
venueId:4edbdcdf9a5286d9211cacd6		checkinsCount:4892		lat: 40.655237463082294	lng:-73.96229785129567	Category:4bf58dd8d48988d163941735
venueId:4c46ecacc047be9a24d62e79		checkinsCount:1589		lat: 40.663488542595395	lng:-73.97226756227025	Category:4bf58dd8d48988d1e5941735
venueId:4ecadeed99119fe1ad742cda		checkinsCount:2831		lat: 40.66424957789683	lng:-73.97667646408081	Category:4bf58dd8d48988d163941735
venueId:4a7d84e8f964a520beee1fe3		checkinsCount:4393		lat: 40.663418	lng:-73.97707103207607	Category:4bf58dd8d48988d163941735
venueId:4ba26fedf964a520eaf837e3		checkinsCount:3668		lat: 40.66149878833944	lng:-73.97472381591797	Category:4bf58dd8d48988d1e8941735
venueId:4ca949678882199c701b45d4		checkinsCount:1587		lat: 40.6550201493737	lng:-73.97300720214844	Category:4bf58dd8d48988d1e7941735
venueId:4c391f1893db0f47bef62292		checkinsCount:462		lat: 40.63880301646404	lng:-74.0337905113414	Category:4bf58dd8d48988d1e5941735
venueId:5267c3e1498ef981529b551d		checkinsCount:1905		lat: 40.65710380039011	lng:-73.96375894546509	Category:4bf58dd8d48988d168941735
venueId:5267c3e1498ef981529b551d		checkinsCount:13344		lat: 40.65200850751782	lng:-73.95901679992676	Category:4f2a25ac4b909258e854f55f
venueId:5267c3e1498ef981529b551d		checkinsCount:1363		lat: 40.638136921263715	lng:-73.93813848495483	Category:4bf58dd8d48988d163941735
venueId:4c329d79213c2d7f4fcd355d		checkinsCount:1377		lat: 40.6631887	lng:-73.972048	Category:4bf58dd8d48988d1e5941735
venueId:4c56c650d12a20a12f2065bd		checkinsCount:2423		lat: 40.639032474561056	lng:-74.036865234375	Category:4bf58dd8d48988d1e0941735
venueId:4b16b4b0f964a52052bc23e3		checkinsCount:6607		lat: 40.660782587829814	lng:-73.95596981048584	Category:4f2a25ac4b909258e854f55f
venueId:4bdc9a15afe8c9b6ae305085		checkinsCount:7940		lat: 40.65378295079248	lng:-73.93064975738525	Category:4f2a25ac4b909258e854f55f
venueId:4e9982340aaf0a73a1def55c		checkinsCount:4846		lat: 40.654857361397404	lng:-73.96931648254395	Category:4bf58dd8d48988d161941735
venueId:4c6b8bf096eaa5937bc622df		checkinsCount:5187		lat: 40.64572136179469	lng:-74.0102820248073	Category:4f2a25ac4b909258e854f55f
venueId:4b92de14f964a520de2234e3		checkinsCount:2081		lat: 40.63982152721227	lng:-73.96290052549782	Category:4f2a25ac4b909258e854f55f
venueId:4f5e0565e4b008b158a75a13		checkinsCount:79703		lat: 40.65016889724004	lng:-73.94957542419434	Category:5345731ebcbc57f1066c39b2
venueId:4fb852bbe4b018d6ec3b18bc		checkinsCount:2789		lat: 40.663	lng:-73.99	Category:4f2a25ac4b909258e854f55f
venueId:4c97edbdf419a09395806b88		checkinsCount:471		lat: 40.64956241759432	lng:-73.97323752963396	Category:4bf58dd8d48988d15b941735
venueId:4e9d1ef8754ae3862f13d0a1		checkinsCount:851		lat: 40.65684334757191	lng:-73.96807193756104	Category:4bf58dd8d48988d163941735
venueId:4ac8fcb6f964a520c5bd20e3		checkinsCount:2224		lat: 40.646098782777614	lng:-73.97086143493652	Category:4f2a25ac4b909258e854f55f
venueId:4b55b2b1f964a52045ec27e3		checkinsCount:1889		lat: 40.650726483587675	lng:-73.97681057453156	Category:4bf58dd8d48988d1e7941735
venueId:50440fefe4b003e2b4525b88		checkinsCount:1187		lat: 40.63711109090635	lng:-74.036865234375	Category:4bf58dd8d48988d15a941735
venueId:4ab3fd14f964a5206b6f20e3		checkinsCount:339		lat: 40.65	lng:-73.949856	Category:4bf58dd8d48988d1e7941735
venueId:4bb91d8498c7ef3bcdcf3102		checkinsCount:1346		lat: 40.66249168996189	lng:-73.99334907531738	Category:4f2a25ac4b909258e854f55f
venueId:4c5999242091a59385425dd0		checkinsCount:215		lat: 40.63863199396125	lng:-73.9473394487091	Category:4bf58dd8d48988d1e7941735
venueId:4f9860d3e4b02ab084c80378		checkinsCount:1190		lat: 40.66110813446929	lng:-73.98837089538574	Category:4bf58dd8d48988d1e5941735
venueId:4df7b940fa76bd19925b5b85		checkinsCount:6623		lat: 40.656735536301305	lng:-73.9788965316875	Category:4f2a25ac4b909258e854f55f
venueId:4b7305b2f964a52063962de3		checkinsCount:967		lat: 40.64035139458128	lng:-73.97346136756222	Category:4bf58dd8d48988d159941735
venueId:4ccc333c7c2ff04d9d61977e		checkinsCount:1932		lat: 40.64681514092294	lng:-73.96665573120117	Category:4f2a25ac4b909258e854f55f
venueId:4ddcd5fb22713339cd1e2cbc		checkinsCount:908		lat: 40.64402728416046	lng:-74.01781630233667	Category:4bf58dd8d48988d165941735
venueId:4dab8b094df01c19b1a2d1df		checkinsCount:2066		lat: 40.66088025198849	lng:-73.97970199584961	Category:4bf58dd8d48988d164941735
venueId:4e6b670f45ddadf2d0e3002d		checkinsCount:272		lat: 40.65726264720548	lng:-73.99006482373646	Category:4bf58dd8d48988d165941735
venueId:4c534e76728920a1b106db80		checkinsCount:245		lat: 40.661024	lng:-73.97937338333334	Category:4bf58dd8d48988d164941735
venueId:4c0be639bbc676b090374cd5		checkinsCount:718		lat: 40.64000501720974	lng:-74.027008521495	Category:4bf58dd8d48988d165941735
venueId:4b041440f964a520435122e3		checkinsCount:4726		lat: 40.6388696475824	lng:-74.00613784790039	Category:4f2a25ac4b909258e854f55f
venueId:4c0bd4edffb8c9b64ccc6d61		checkinsCount:389		lat: 40.661320190726286	lng:-73.98947945148703	Category:4bf58dd8d48988d1e7941735
venueId:4bf18e26324cc9b64c2ccc92		checkinsCount:372		lat: 40.645802503321065	lng:-73.9803083865711	Category:4bf58dd8d48988d1e7941735
venueId:4f451ae3e4b062c96246464f		checkinsCount:209		lat: 40.65659277210832	lng:-73.95497377436354	Category:4bf58dd8d48988d1e7941735
venueId:4bb742801344b7133a7f9e04		checkinsCount:253		lat: 40.640237381859365	lng:-74.01236057281494	Category:4bf58dd8d48988d1e7941735
venueId:4cd085c29d87224bd3a9553b		checkinsCount:243		lat: 40.658665	lng:-73.962823	Category:4bf58dd8d48988d1e7941735
venueId:4c0c53cb2b899c749b58f158		checkinsCount:178		lat: 40.64222555239886	lng:-73.92950380161723	Category:4bf58dd8d48988d1e7941735
venueId:4bd3554b9854d13a9c88fd4d		checkinsCount:277		lat: 40.636913253166064	lng:-74.0004749690027	Category:4bf58dd8d48988d167941735
venueId:46f52f99f964a520ef4a1fe3		checkinsCount:8964		lat: 40.66530754367275	lng:-73.98940086364746	Category:4bf58dd8d48988d14e941735
venueId:46f52f99f964a520ef4a1fe3		checkinsCount:9313		lat: 40.665610864239476	lng:-73.98264423752961	Category:4bf58dd8d48988d142941735
venueId:4e5554b118a8e7aa2cd8bc59		checkinsCount:3667		lat: 40.665628720198114	lng:-73.98228267031958	Category:4bf58dd8d48988d14e941735
venueId:48c3c327f964a520d9511fe3		checkinsCount:3031		lat: 40.6654806	lng:-73.989363	Category:4bf58dd8d48988d16f941735
venueId:4d99d71ff9574eb9e7804294		checkinsCount:1248		lat: 40.66036751356021	lng:-73.99064540863037	Category:4bf58dd8d48988d1ca941735
venueId:4cacf63f76d3a0932b3b366b		checkinsCount:2230		lat: 40.660796	lng:-73.990339	Category:4bf58dd8d48988d14e941735
venueId:4a44257bf964a52037a71fe3		checkinsCount:6000		lat: 40.660143057292565	lng:-73.99126425737475	Category:4bf58dd8d48988d1ca941735
venueId:47ba53f2f964a520c54d1fe3		checkinsCount:7289		lat: 40.639762793778125	lng:-73.96755540277302	Category:4bf58dd8d48988d157941735
venueId:44db29bef964a52092361fe3		checkinsCount:5745		lat: 40.66352220818551	lng:-73.9843602377087	Category:4bf58dd8d48988d1c1941735
venueId:4b4b90e4f964a5207aa026e3		checkinsCount:1401		lat: 40.661602	lng:-73.99323	Category:4bf58dd8d48988d1ca941735
venueId:4a8b40c3f964a520f00b20e3		checkinsCount:952		lat: 40.65492408264026	lng:-73.95966902180399	Category:4bf58dd8d48988d144941735
venueId:4a6cba95f964a52073d11fe3		checkinsCount:839		lat: 40.64653836709648	lng:-73.97066831588745	Category:4bf58dd8d48988d1ca941735
venueId:5074523d45b0e4539638b474		checkinsCount:1484		lat: 40.65880687197466	lng:-73.99603322313953	Category:4bf58dd8d48988d16a941735
venueId:4f7b0c3ae4b054bfe4877950		checkinsCount:3906		lat: 40.651534990296526	lng:-73.97576286551921	Category:4bf58dd8d48988d16d941735
venueId:4ce1e6247e2e236a6aff921b		checkinsCount:1997		lat: 40.645177	lng:-73.999461	Category:4bf58dd8d48988d14a941735
venueId:49e4cedbf964a5204f631fe3		checkinsCount:7206		lat: 40.66003672359454	lng:-73.98071013200064	Category:4bf58dd8d48988d179941735
venueId:49bf04caf964a52000551fe3		checkinsCount:1993		lat: 40.66081342302352	lng:-73.96133930844717	Category:4bf58dd8d48988d16d941735
venueId:51a4e0f6498e8382192fc87f		checkinsCount:486		lat: 40.6472384398491	lng:-73.96890878677368	Category:4bf58dd8d48988d16a941735
venueId:529907de11d20a7c27a050f3		checkinsCount:1709		lat: 40.654421675172365	lng:-73.95944516785616	Category:4bf58dd8d48988d144941735
venueId:4bdcade72a3a0f470fecb3b6		checkinsCount:1939		lat: 40.6487346773711	lng:-73.9775248416076	Category:4bf58dd8d48988d14e941735
venueId:50774a72e4b0347051bd3282		checkinsCount:944		lat: 40.64995077913798	lng:-74.00891055923843	Category:4bf58dd8d48988d1c1941735
venueId:4c9521df82b56dcbc5fbd5aa		checkinsCount:2931		lat: 40.648365531841755	lng:-73.97875878919255	Category:4bf58dd8d48988d16d941735
venueId:4e1b155f7d8bb17ec63a95de		checkinsCount:1694		lat: 40.660135	lng:-73.983866	Category:4bf58dd8d48988d110941735
venueId:4ec7fa185c5ce271be2b2bfa		checkinsCount:1579		lat: 40.65139249735026	lng:-74.00377464891751	Category:4bf58dd8d48988d1c1941735
venueId:4b5cff55f964a520424e29e3		checkinsCount:1757		lat: 40.65279	lng:-73.975887	Category:4bf58dd8d48988d10c941735
venueId:4e7d174cb6340a4da75a2cca		checkinsCount:5854		lat: 40.66390755948686	lng:-73.98411345601794	Category:4bf58dd8d48988d10d941735
venueId:408c5100f964a520d3f21ee3		checkinsCount:1099		lat: 40.665112899937576	lng:-73.98648943400983	Category:4bf58dd8d48988d110941735
venueId:4eb322976da1af509d30bdd7		checkinsCount:945		lat: 40.65223723367104	lng:-74.00299420802065	Category:4bf58dd8d48988d1cb941735
venueId:4a87839bf964a520940420e3		checkinsCount:837		lat: 40.64443156066486	lng:-74.01074682889745	Category:4bf58dd8d48988d1c1941735
venueId:4b5415ecf964a520d3b127e3		checkinsCount:6907		lat: 40.663289	lng:-73.984549	Category:4bf58dd8d48988d155941735
venueId:4be5e6c62468c9281bbd0043		checkinsCount:1597		lat: 40.6402286468158	lng:-73.99513223628907	Category:4bf58dd8d48988d147941735
venueId:4aeb3f58f964a5201ac021e3		checkinsCount:349		lat: 40.640149279280166	lng:-74.00476167255299	Category:4bf58dd8d48988d145941735
venueId:51d868ac498ef583276dcf4b		checkinsCount:880		lat: 40.64677206614652	lng:-73.96996602252206	Category:4bf58dd8d48988d149941735
venueId:4f235fb4e4b04f6e681be393		checkinsCount:450		lat: 40.6624424263354	lng:-73.99638902569743	Category:4bf58dd8d48988d1c1941735
venueId:4d40a703c5eaa1cd5c81a350		checkinsCount:819		lat: 40.65030727676827	lng:-74.00883078575134	Category:4bf58dd8d48988d16d941735
venueId:50f213ccf2e777d9466664e9		checkinsCount:565		lat: 40.655170365770246	lng:-73.9564317240562	Category:4bf58dd8d48988d10f941735
venueId:4bb93b70cf2fc9b6fe64a002		checkinsCount:1365		lat: 40.6412338116017	lng:-73.96399107402843	Category:52af39fb3cf9994f4e043be9
venueId:4aa2d9f1f964a520534220e3		checkinsCount:3608		lat: 40.638221	lng:-74.006518	Category:4bf58dd8d48988d1f5931735
venueId:46066f16f964a520cb441fe3		checkinsCount:2047		lat: 40.64056372357759	lng:-73.96573593884727	Category:4eb1bd1c3b7b55596b4a748f
venueId:4afa2432f964a520081722e3		checkinsCount:2302		lat: 40.664897142398	lng:-73.98326406544956	Category:4bf58dd8d48988d179941735
venueId:49ff9127f964a52033701fe3		checkinsCount:2335		lat: 40.647775	lng:-74.00757401249999	Category:4bf58dd8d48988d1c1941735
venueId:49bc364ff964a5201f541fe3		checkinsCount:5677		lat: 40.665796751366905	lng:-73.97910888450723	Category:4bf58dd8d48988d147941735
venueId:4a862810f964a5209a0020e3		checkinsCount:1627		lat: 40.640198412943406	lng:-73.96666002204142	Category:4bf58dd8d48988d115941735
venueId:49ee54faf964a5204d681fe3		checkinsCount:1869		lat: 40.66330993090269	lng:-73.98453241079356	Category:4bf58dd8d48988d1d2941735
venueId:4b25858af964a520437324e3		checkinsCount:567		lat: 40.66139304501466	lng:-73.96080550707151	Category:4bf58dd8d48988d144941735
venueId:4d0e9e455b8a8cfa5e50eb83		checkinsCount:1922		lat: 40.66337764263153	lng:-73.981235	Category:4bf58dd8d48988d110941735
venueId:4a85fd26f964a520f4ff1fe3		checkinsCount:1138		lat: 40.66055470423683	lng:-73.95043373107909	Category:4bf58dd8d48988d16a941735
venueId:4b47bad2f964a5203d3c26e3		checkinsCount:260		lat: 40.65697147386127	lng:-73.95991583483008	Category:4bf58dd8d48988d16d941735
venueId:5320b02a498e847d9e93b82b		checkinsCount:583		lat: 40.65392690140375	lng:-73.95954274524996	Category:4bf58dd8d48988d1d3941735
venueId:4a89d100f964a520160920e3		checkinsCount:156		lat: 40.65948554828679	lng:-73.98150214195937	Category:4bf58dd8d48988d16d941735
venueId:4a2aa3bcf964a5202d961fe3		checkinsCount:2680		lat: 40.66323425152285	lng:-73.99152250765546	Category:52f2ab2ebcbc57f1066b8b46
venueId:49eb9702f964a520f9661fe3		checkinsCount:1307		lat: 40.663433	lng:-73.984454	Category:4bf58dd8d48988d1f5941735
venueId:4b609494f964a520a8ee29e3		checkinsCount:955		lat: 40.648426	lng:-73.978667	Category:4bf58dd8d48988d1f9941735
venueId:4beffc1dc8d920a186489430		checkinsCount:865		lat: 40.640816109912606	lng:-73.96573593884727	Category:4bf58dd8d48988d1fa941735
venueId:4a8a0400f964a520a90920e3		checkinsCount:1285		lat: 40.651692	lng:-73.975952	Category:4bf58dd8d48988d119951735
venueId:49eb5863f964a520c6661fe3		checkinsCount:1401		lat: 40.66366362039965	lng:-73.9954948425293	Category:4bf58dd8d48988d10d951735
venueId:4a6cd9e8f964a520d1d11fe3		checkinsCount:925		lat: 40.66139298647552	lng:-73.96108746528625	Category:4bf58dd8d48988d186941735
venueId:49e3c784f964a520ce621fe3		checkinsCount:1640		lat: 40.6634383853172	lng:-73.98437745502413	Category:4bf58dd8d48988d119951735
venueId:4b3d21b3f964a520a08e25e3		checkinsCount:301		lat: 40.65815870877952	lng:-73.9601569077136	Category:4bf58dd8d48988d119951735
venueId:4ac76e95f964a52032b720e3		checkinsCount:5633		lat: 40.66465	lng:-73.983541	Category:4bf58dd8d48988d1f5941735
venueId:4b6f38bdf964a52020e52ce3		checkinsCount:480		lat: 40.640232	lng:-73.96672837142856	Category:4bf58dd8d48988d119951735
venueId:4a7ca28cf964a520fdec1fe3		checkinsCount:237		lat: 40.66370055646368	lng:-73.99102896237186	Category:4bf58dd8d48988d1f9941735
venueId:4a47a8b1f964a520e7a91fe3		checkinsCount:1170		lat: 40.66004193659185	lng:-73.98053221627114	Category:4bf58dd8d48988d119951735
venueId:4d2abf5dec272d438760384c		checkinsCount:1118		lat: 40.63884521059444	lng:-73.94198376069232	Category:4bf58dd8d48988d10d951735
venueId:4d085ce3611ff04d92c31afb		checkinsCount:970		lat: 40.64924555196105	lng:-73.963640951225	Category:4bf58dd8d48988d118951735
venueId:53192dd6498e6f151e87e3ed		checkinsCount:507		lat: 40.65846651381901	lng:-74.0040845289792	Category:4bf58dd8d48988d122951735
venueId:4bf1953ad39ad13a356aaa0e		checkinsCount:544		lat: 40.64894950556934	lng:-73.96422066240683	Category:4bf58dd8d48988d1f6941735
venueId:4b1726aef964a52011c323e3		checkinsCount:2427		lat: 40.64114802	lng:-73.96478	Category:50aa9e744b90af0d42d5de0e
venueId:4bca0b51511f952176dfaec7		checkinsCount:642		lat: 40.655178533333334	lng:-74.008832	Category:4bf58dd8d48988d186941735
venueId:4bfd449683bbd13a71f562c5		checkinsCount:698		lat: 40.640793852256685	lng:-73.94848174669116	Category:4bf58dd8d48988d10f951735
venueId:4bfd411083bbd13a9af462c5		checkinsCount:822		lat: 40.64152689600208	lng:-73.96376148537664	Category:4bf58dd8d48988d10f951735
venueId:4c06d1c68a81c9b664512690		checkinsCount:872		lat: 40.63929435169446	lng:-74.01968691466769	Category:4bf58dd8d48988d10f951735
venueId:4b8df456f964a520661433e3		checkinsCount:589		lat: 40.66241455	lng:-73.985296	Category:4bf58dd8d48988d111951735
venueId:4aec56f4f964a52028c621e3		checkinsCount:1050		lat: 40.647650371784955	lng:-73.97394347913898	Category:4bf58dd8d48988d118951735
venueId:4a8c712ff964a520030e20e3		checkinsCount:400		lat: 40.66427392999999	lng:-73.9837	Category:4bf58dd8d48988d10d951735
venueId:4bfd5beb83bbd13a62fb62c5		checkinsCount:741		lat: 40.65547099739386	lng:-73.94738537036618	Category:4bf58dd8d48988d10f951735
venueId:51c09036498e3b4dd306d62c		checkinsCount:1059		lat: 40.66095618515696	lng:-73.96106379824417	Category:4bf58dd8d48988d1f5941735
venueId:4a1079e9f964a520d5761fe3		checkinsCount:12581		lat: 40.65536200283102	lng:-74.0088951587677	Category:52e816a6bcbc57f1066b7a54
venueId:4b58e78cf964a520057228e3		checkinsCount:561		lat: 40.66517809028229	lng:-73.95691961814863	Category:4bf58dd8d48988d10f951735
venueId:4fa557cee4b0d90525917b70		checkinsCount:215		lat: 40.66558317218466	lng:-73.98924989325472	Category:4bf58dd8d48988d101951735
venueId:4b818a9df964a520afad30e3		checkinsCount:948		lat: 40.65541800696871	lng:-73.96009376960656	Category:4bf58dd8d48988d10f951735
venueId:4b785c6ef964a52061c82ee3		checkinsCount:750		lat: 40.643567046363046	lng:-73.97731482982635	Category:4bf58dd8d48988d10f951735
venueId:4ec468af775b7dea874f43d6		checkinsCount:161		lat: 40.65783705737272	lng:-73.98277623808755	Category:4bf58dd8d48988d127951735
venueId:4c4a188b5609c9b60bc92d8f		checkinsCount:226		lat: 40.66331665930838	lng:-73.98461275818035	Category:4bf58dd8d48988d1f8941735
venueId:4a217611f964a520f77c1fe3		checkinsCount:3458		lat: 40.6449382371702	lng:-73.97986072638912	Category:4bf58dd8d48988d118951735
venueId:4c955ff7f244b1f7c5662b1d		checkinsCount:2280		lat: 40.664817330910076	lng:-73.9931810400601	Category:50aa9e744b90af0d42d5de0e
venueId:4b70a3e1f964a520fd262de3		checkinsCount:508		lat: 40.641603632087254	lng:-73.96329656751949	Category:4bf58dd8d48988d118951735
venueId:4bc11ec9461576b0987e7b32		checkinsCount:545		lat: 40.64269458527047	lng:-73.9797516808023	Category:4bf58dd8d48988d186941735
venueId:4b005ecbf964a520673d22e3		checkinsCount:928		lat: 40.66197407051926	lng:-73.98219084361823	Category:4bf58dd8d48988d118951735
venueId:4bf5e3a5d4cdb713713c84fe		checkinsCount:396		lat: 40.65297247838013	lng:-73.93054861280804	Category:4bf58dd8d48988d1f6941735
venueId:4b92bccdf964a520db1634e3		checkinsCount:647		lat: 40.64478844675421	lng:-74.01076978215657	Category:4bf58dd8d48988d10f951735
venueId:4ac8dfe5f964a520febc20e3		checkinsCount:298		lat: 40.661654	lng:-74.00031008333333	Category:4bf58dd8d48988d100951735
venueId:4bfd511c83bbd13af1f862c5		checkinsCount:426		lat: 40.66335566087344	lng:-73.93149008620492	Category:4bf58dd8d48988d10f951735
venueId:50a6b79329a6841e56fb6f2a		checkinsCount:195		lat: 40.66426585442048	lng:-73.9804744720459	Category:4bf58dd8d48988d114951735
venueId:4c36139d3849c9287f68bbb1		checkinsCount:458		lat: 40.64153995987908	lng:-73.93751621246338	Category:4bf58dd8d48988d10f951735
venueId:4bebf37361aca59313948500		checkinsCount:2255		lat: 40.63938511682027	lng:-74.02289811076724	Category:4d954b0ea243a5684a65b473
venueId:49fe0ef1f964a520656f1fe3		checkinsCount:1603		lat: 40.66129766713343	lng:-74.00055530971083	Category:4bf58dd8d48988d1fa941735
venueId:50e72f8ee41296fd8321b0c9		checkinsCount:58		lat: 40.639341844726296	lng:-73.9679217338562	Category:4bf58dd8d48988d1f8941735
venueId:4b074e0ef964a520a9fb22e3		checkinsCount:1125		lat: 40.66573816896913	lng:-73.98258684595439	Category:4bf58dd8d48988d118951735
venueId:4c65dae9f909ef3ba556c78f		checkinsCount:469		lat: 40.65492247663557	lng:-73.95635604858398	Category:52f2ab2ebcbc57f1066b8b46
venueId:4c7c0f00794e224b4b266d28		checkinsCount:4768		lat: 40.6443232677506	lng:-74.02466173612738	Category:4bf58dd8d48988d12d941735
venueId:4b4fe5abf964a520f31827e3		checkinsCount:6082		lat: 40.65903036432116	lng:-73.93318357867925	Category:4bf58dd8d48988d196941735
venueId:51f9c38a498e0a7711ce2e28		checkinsCount:1351		lat: 40.651951	lng:-73.958973	Category:4bf58dd8d48988d176941735
venueId:4b688c4df964a520357f2be3		checkinsCount:6768		lat: 40.65671312078148	lng:-73.94318103790283	Category:4bf58dd8d48988d196941735
venueId:53192dd6498e6f151e87e3ed		checkinsCount:507		lat: 40.65846651381901	lng:-74.0040845289792	Category:4bf58dd8d48988d122951735
venueId:4c1c731db306c92827f763b7		checkinsCount:652		lat: 40.6580642113693	lng:-74.00036573410034	Category:4bf58dd8d48988d12e941735
venueId:4a896d11f964a520020820e3		checkinsCount:9422		lat: 40.646717456174066	lng:-74.02111530303955	Category:4bf58dd8d48988d196941735
venueId:4e6934d2b993038735685814		checkinsCount:2027		lat: 40.656356587511254	lng:-74.00825638391181	Category:4d4b7105d754a06375d81259
venueId:5134a9e5e4b06bad62529e0f		checkinsCount:561		lat: 40.66384007822761	lng:-73.99555116700748	Category:4bf58dd8d48988d174941735
venueId:4f45bcbfe4b080c039d4adfd		checkinsCount:294		lat: 40.66068814435123	lng:-74.00075616133371	Category:4e52adeebd41615f56317744
venueId:4b9a7fe7f964a5201cbb35e3		checkinsCount:547		lat: 40.640595593348664	lng:-73.96459579467773	Category:4bf58dd8d48988d102941735
venueId:4e9e7dde7ee511e1b7ac587c		checkinsCount:963		lat: 40.645931885922515	lng:-74.0201918620928	Category:4bf58dd8d48988d194941735
venueId:4f343648e4b073a36f74409c		checkinsCount:630		lat: 40.657360386183846	lng:-73.94232244203052	Category:4bf58dd8d48988d194941735
venueId:4ab66100f964a520ce7620e3		checkinsCount:10341		lat: 40.63904061589954	lng:-73.99794101715088	Category:4bf58dd8d48988d196941735
venueId:4c4b49ed5609c9b69b3aee90		checkinsCount:215		lat: 40.65806224801866	lng:-73.94894096005882	Category:4bf58dd8d48988d132941735
venueId:4ea21c72722ec75ade2911c7		checkinsCount:637		lat: 40.64705935216955	lng:-74.02248859405518	Category:4bf58dd8d48988d1e2931735
venueId:4aac2262f964a5206e5c20e3		checkinsCount:669		lat: 40.648275	lng:-73.965598	Category:4bf58dd8d48988d139941735
venueId:4dc91a141f6e936efe51ac20		checkinsCount:2141		lat: 40.63860077793015	lng:-73.99760563590422	Category:4bf58dd8d48988d194941735
venueId:4b190c9ff964a52074d723e3		checkinsCount:6246		lat: 40.65509664890871	lng:-73.94460135020307	Category:4bf58dd8d48988d1b3941735
venueId:4c068f2a2e80a593804874f9		checkinsCount:388		lat: 40.64331928441533	lng:-73.9437288242994	Category:4bf58dd8d48988d13d941735
venueId:4acbac88f964a520efc420e3		checkinsCount:1160		lat: 40.66379912106057	lng:-73.98970900944474	Category:4bf58dd8d48988d171941735
venueId:4eef384a29c28028e0c54525		checkinsCount:374		lat: 40.63862744171689	lng:-73.998863697052	Category:4bf58dd8d48988d104941735
venueId:4c22841211de20a13eff84ce		checkinsCount:274		lat: 40.64159420297812	lng:-73.9294636164591	Category:4bf58dd8d48988d132941735
venueId:4e7a097db9937f472db1075c		checkinsCount:360		lat: 40.655988025463195	lng:-73.94629472806521	Category:52e81612bcbc57f1066b7a39
venueId:535e50da498e20e08bf953af		checkinsCount:209		lat: 40.65576817134064	lng:-74.00847444260268	Category:4bf58dd8d48988d124941735
venueId:4b4b94b5f964a520f3a026e3		checkinsCount:440		lat: 40.64065951841864	lng:-73.96577611646958	Category:4bf58dd8d48988d12f941735
venueId:4c41be1fff711b8d54571205		checkinsCount:288		lat: 40.65711828978218	lng:-73.98378632631129	Category:4bf58dd8d48988d132941735
venueId:4f08523fe4b0cc066c0fcf13		checkinsCount:127		lat: 40.64684770247412	lng:-74.00201797485352	Category:4bf58dd8d48988d15e941735
venueId:4b757b40f964a520fd0e2ee3		checkinsCount:263		lat: 40.646977948519975	lng:-73.98124694824219	Category:4d954af4a243a5684765b473
venueId:4cbef99d575d236ae8febb8e		checkinsCount:1015		lat: 40.639236827169434	lng:-74.01512511317839	Category:4bf58dd8d48988d1b2941735
venueId:4bdc73ce2a3a0f4797e7b2b6		checkinsCount:428		lat: 40.64825833899213	lng:-73.97825947182122	Category:4e52d2d203646f7c19daa8ae
venueId:4b5a00a7f964a52002a728e3		checkinsCount:518		lat: 40.645828	lng:-74.013534	Category:4bf58dd8d48988d12f941735
venueId:4c027e6e187ec9283e3eb47b		checkinsCount:300		lat: 40.647685826357176	lng:-73.95749360962006	Category:4bf58dd8d48988d1ff931735
venueId:4c08f39e009a0f476bd7e6bf		checkinsCount:503		lat: 40.64211909211323	lng:-74.00611595251165	Category:4bf58dd8d48988d12c941735
venueId:4c6d4766c7edb71333ca14e7		checkinsCount:201		lat: 40.64592410773647	lng:-73.97516023155731	Category:4bf58dd8d48988d130941735
venueId:4bc6130151b376b04df01a6f		checkinsCount:382		lat: 40.6654155356149	lng:-73.94023868135636	Category:4bf58dd8d48988d124941735
venueId:4d948000af67370459027d09		checkinsCount:219		lat: 40.663807096920884	lng:-73.99432880495256	Category:4d954af4a243a5684765b473
venueId:4bcdadd88920b713d90da0dc		checkinsCount:898		lat: 40.655987934541535	lng:-73.98198997255601	Category:4bf58dd8d48988d13d941735
venueId:4dc9b3ed7d8bc1f6b0f60e3f		checkinsCount:1296		lat: 40.65760481166536	lng:-73.93426855422129	Category:4bf58dd8d48988d196941735
venueId:4a68c51bf964a520faca1fe3		checkinsCount:1248		lat: 40.66577955375878	lng:-73.98234128952026	Category:4d954af4a243a5684765b473
venueId:4b9f9033f964a520922b37e3		checkinsCount:433		lat: 40.63954145338989	lng:-74.00893351271802	Category:4bf58dd8d48988d172941735
venueId:51d7f8b47dd230f6edb4005f		checkinsCount:0		lat: 40.66091280667626	lng:-73.94322395324707	Category:4bf58dd8d48988d124941735
venueId:5347160a11d299b8431c7b20		checkinsCount:0		lat: 40.660489594495864	lng:-73.95077705383301	Category:4bf58dd8d48988d122951735
venueId:523202f693cd69d4997a49c5		checkinsCount:0		lat: 40.638511426831386	lng:-74.02208089828491	Category:4bf58dd8d48988d124951735
venueId:4d9b693a9298b1f735405738		checkinsCount:867		lat: 40.63861604596982	lng:-73.99767450040193	Category:4bf58dd8d48988d196941735
venueId:4ad8f53df964a520711621e3		checkinsCount:825		lat: 40.659244566798456	lng:-74.00312045602854	Category:4bf58dd8d48988d126941735
venueId:4fff1ce5e4b0eb8e43415f89		checkinsCount:111		lat: 40.656663538311875	lng:-73.99520110167552	Category:4bf58dd8d48988d132941735
venueId:4f808435e4b0a6d0b62cbbfe		checkinsCount:382		lat: 40.65905402493468	lng:-73.98129553098043	Category:4bf58dd8d48988d132941735
venueId:4c2034c4b4e62d7fb5dde093		checkinsCount:2311		lat: 40.64887034107186	lng:-74.0199106983505	Category:4bf58dd8d48988d130941735
venueId:50993f2ce4b0cc8b54ae004a		checkinsCount:14		lat: 40.66010300409985	lng:-73.98777544498444	Category:4cae28ecbf23941eb1190695
querycnt:17	valid_query:17	venuecnt:437
