StartLatLng:40.66996239371307,-73.9266586303711
EndLatLng:40.620597938515495,-74.02021408081055
總地點數:445
Category0:
VenueId:485e640df964a520d7501fe3		checkinsCount:25113		lat: 40.6634023	lng:-73.976447	Category:4bf58dd8d48988d1f2931735
VenueId:45bca695f964a520ff411fe3		checkinsCount:9406		lat: 40.661554974247885	lng:-73.97992385801638	Category:4bf58dd8d48988d17f941735
VenueId:49d8307ef964a520b15d1fe3		checkinsCount:5699		lat: 40.665014570215	lng:-73.96446704864502	Category:4bf58dd8d48988d17b941735
VenueId:4a3c2132f964a52022a11fe3		checkinsCount:2037		lat: 40.66715574677851	lng:-73.99066167203445	Category:4bf58dd8d48988d135941735
VenueId:4eadbfa277c8cdc66d7524b2		checkinsCount:1868		lat: 40.669613911759576	lng:-73.99552247315187	Category:4bf58dd8d48988d1e5931735
VenueId:4dbc72210cb691071ca3bce6		checkinsCount:1548		lat: 40.66358142556565	lng:-73.96403125201438	Category:5109983191d435c0d71c2bb1
VenueId:4e9e45525c5c9252b61ab088		checkinsCount:1128		lat: 40.661717	lng:-73.997411	Category:4bf58dd8d48988d17e941735
VenueId:4ae73a30f964a52091a921e3		checkinsCount:950		lat: 40.668889528495924	lng:-73.99633163823277	Category:4bf58dd8d48988d1e5931735
VenueId:4b8dbe65f964a5209a0b33e3		checkinsCount:925		lat: 40.63122435390391	lng:-73.94896392069857	Category:4bf58dd8d48988d1f2931735
VenueId:4c1ac2e955e4c9b6cb554823		checkinsCount:863		lat: 40.669881018006315	lng:-73.98564577102661	Category:4bf58dd8d48988d1f2931735

Category1:
VenueId:49e7f5faf964a52035651fe3		checkinsCount:15075		lat: 40.63116747782979	lng:-73.95221471786499	Category:4bf58dd8d48988d1ae941735
VenueId:4b190c9ff964a52074d723e3		checkinsCount:6246		lat: 40.65509664890871	lng:-73.94460135020307	Category:4bf58dd8d48988d1b3941735
VenueId:4c33bc7216adc9286421c49c		checkinsCount:4431		lat: 40.631379177245186	lng:-73.9514422416687	Category:4bf58dd8d48988d1a7941735
VenueId:4cb4615feb65b1f7f68b89cd		checkinsCount:3848		lat: 40.631664479910725	lng:-73.95128867135834	Category:4bf58dd8d48988d198941735
VenueId:4a96a837f964a5207e2620e3		checkinsCount:3350		lat: 40.6312213172639	lng:-73.95160437608178	Category:4bf58dd8d48988d198941735
VenueId:4c3329f6452620a1a818230f		checkinsCount:2964		lat: 40.631653481888826	lng:-73.95327473248952	Category:4bf58dd8d48988d198941735
VenueId:4c504a987537e21e9e77ae89		checkinsCount:2633		lat: 40.63216903989131	lng:-73.94998566640727	Category:4bf58dd8d48988d198941735
VenueId:4c5d4dbf9b28d13aaf205970		checkinsCount:2216		lat: 40.66663716875565	lng:-73.95703441657946	Category:4bf58dd8d48988d1ae941735
VenueId:4d93b045220188bf7b940d0e		checkinsCount:1882		lat: 40.63027996143728	lng:-73.9544141292572	Category:4bf58dd8d48988d1b6941735
VenueId:4bc5fcd842419521ff5f031d		checkinsCount:1695		lat: 40.63170071020914	lng:-73.95097870621908	Category:4bf58dd8d48988d1aa941735

Category2:
VenueId:526e524711d2854aff368121		checkinsCount:57		lat: 40.65908565316753	lng:-74.01317985902257	Category:5267e4d9e4b0ec79466e48c8
VenueId:546f9698498e5de660e9401e		checkinsCount:25		lat: 40.65624051272178	lng:-74.00880153017275	Category:5267e4d9e4b0ec79466e48c8

Category3:
VenueId:46f52f99f964a520ef4a1fe3		checkinsCount:8964		lat: 40.66530754367275	lng:-73.98940086364746	Category:4bf58dd8d48988d14e941735
VenueId:4a4512f4f964a520bba71fe3		checkinsCount:8566		lat: 40.66524243857114	lng:-73.98293137550354	Category:4bf58dd8d48988d1e0931735
VenueId:47ba53f2f964a520c54d1fe3		checkinsCount:7289		lat: 40.639762793778125	lng:-73.96755540277302	Category:4bf58dd8d48988d157941735
VenueId:4ce1e6247e2e236a6aff921b		checkinsCount:7206		lat: 40.66003672359454	lng:-73.98071013200064	Category:4bf58dd8d48988d179941735
VenueId:4eb322976da1af509d30bdd7		checkinsCount:6907		lat: 40.663289	lng:-73.984549	Category:4bf58dd8d48988d155941735
VenueId:4b780846f964a520d2b22ee3		checkinsCount:6796		lat: 40.632333063346834	lng:-73.94861951081596	Category:4bf58dd8d48988d1e0931735
VenueId:4b4b90e4f964a5207aa026e3		checkinsCount:6481		lat: 40.66843964400898	lng:-73.98016490585705	Category:4bf58dd8d48988d179941735
VenueId:49e4cedbf964a5204f631fe3		checkinsCount:6333		lat: 40.66632576461497	lng:-73.98208753852673	Category:4bf58dd8d48988d14a941735
VenueId:48c3c327f964a520d9511fe3		checkinsCount:6214		lat: 40.625236922541774	lng:-73.96149428276343	Category:4bf58dd8d48988d1ca941735
VenueId:4a397422f964a520769f1fe3		checkinsCount:6106		lat: 40.660393964448566	lng:-73.98030817508698	Category:4bf58dd8d48988d1e0931735

Category4:
VenueId:4a7c3df8f964a5200bec1fe3		checkinsCount:14885		lat: 40.660536	lng:-73.9803324	Category:4bf58dd8d48988d116941735
VenueId:4e613df262e13e3bce1f28e0		checkinsCount:10046		lat: 40.65946654883737	lng:-73.98791845009258	Category:4bf58dd8d48988d117941735
VenueId:488f2318f964a5205b511fe3		checkinsCount:9867		lat: 40.668714309505226	lng:-73.98515223262113	Category:4bf58dd8d48988d11d941735
VenueId:4116be80f964a520020c1fe3		checkinsCount:7869		lat: 40.66734922975621	lng:-73.98773480203505	Category:4bf58dd8d48988d116941735
VenueId:49c4489df964a520b9561fe3		checkinsCount:7237		lat: 40.63968238177356	lng:-73.96719954682656	Category:4bf58dd8d48988d116941735
VenueId:4ae12770f964a520858521e3		checkinsCount:6858		lat: 40.66503528333333	lng:-73.98982658333334	Category:4bf58dd8d48988d116941735
VenueId:4fe50f3de4b0c836715cae01		checkinsCount:6189		lat: 40.669458969454624	lng:-73.9867362126474	Category:4bf58dd8d48988d116941735
VenueId:4af5e676f964a52089fe21e3		checkinsCount:5664		lat: 40.663164	lng:-73.99130693333333	Category:4bf58dd8d48988d116941735
VenueId:4d35113b62a22d432a40049b		checkinsCount:5266		lat: 40.66336832182562	lng:-73.99132164635607	Category:4bf58dd8d48988d11b941735
VenueId:49eb18e4f964a520a5661fe3		checkinsCount:5056		lat: 40.66543225851896	lng:-73.98278771639265	Category:4bf58dd8d48988d123941735

Category5:
VenueId:4c97edbdf419a09395806b88		checkinsCount:79703		lat: 40.65016889724004	lng:-73.94957542419434	Category:5345731ebcbc57f1066c39b2
VenueId:4fb852bbe4b018d6ec3b18bc		checkinsCount:79703		lat: 40.65016889724004	lng:-73.94957542419434	Category:5345731ebcbc57f1066c39b2
VenueId:42893400f964a52052231fe3		checkinsCount:61519		lat: 40.66390776998241	lng:-73.970947265625	Category:4bf58dd8d48988d163941735
VenueId:42717900f964a5206f211fe3		checkinsCount:24883		lat: 40.66760245789949	lng:-73.96317958831787	Category:52e81612bcbc57f1066b7a22
VenueId:4a468cd9f964a52015a91fe3		checkinsCount:21891		lat: 40.66875802311211	lng:-73.97030353546143	Category:4bf58dd8d48988d163941735
VenueId:4c410470ff711b8dbf5d1105		checkinsCount:21619		lat: 40.63382181425697	lng:-74.0152359008789	Category:4f2a25ac4b909258e854f55f
VenueId:4c02ec6bf56c2d7f442f1c66		checkinsCount:15069		lat: 40.66911608150882	lng:-73.94283771514893	Category:4f2a25ac4b909258e854f55f
VenueId:4c329d79213c2d7f4fcd355d		checkinsCount:13344		lat: 40.65200850751782	lng:-73.95901679992676	Category:4f2a25ac4b909258e854f55f
VenueId:4bb4e7d4c29a952136eda735		checkinsCount:11292		lat: 40.63248270094354	lng:-73.94686301087354	Category:4bf58dd8d48988d164941735
VenueId:4a4ff7a8f964a520ddaf1fe3		checkinsCount:9709		lat: 40.64779198054751	lng:-74.00373458862305	Category:4bf58dd8d48988d163941735

Category6:
VenueId:4a386563f964a520f29e1fe3		checkinsCount:11621		lat: 40.66804190055108	lng:-73.97978782653809	Category:4bf58dd8d48988d196941735
VenueId:4ab66100f964a520ce7620e3		checkinsCount:10341		lat: 40.63904061589954	lng:-73.99794101715088	Category:4bf58dd8d48988d196941735
VenueId:4b688c4df964a520357f2be3		checkinsCount:6768		lat: 40.65671312078148	lng:-73.94318103790283	Category:4bf58dd8d48988d196941735
VenueId:4b4fe5abf964a520f31827e3		checkinsCount:6082		lat: 40.65903036432116	lng:-73.93318357867925	Category:4bf58dd8d48988d196941735
VenueId:49f19a05f964a520b2691fe3		checkinsCount:2645		lat: 40.66908642248909	lng:-73.9423511438116	Category:4bf58dd8d48988d139941735
VenueId:4dc91a141f6e936efe51ac20		checkinsCount:2141		lat: 40.63860077793015	lng:-73.99760563590422	Category:4bf58dd8d48988d194941735
VenueId:4e6934d2b993038735685814		checkinsCount:2027		lat: 40.656356587511254	lng:-74.00825638391181	Category:4d4b7105d754a06375d81259
VenueId:4bf283941cd9d13afab6ed76		checkinsCount:1777		lat: 40.63296194468323	lng:-73.95274664886308	Category:4bf58dd8d48988d13d941735
VenueId:4cf66a2664e3721e5d0e21c8		checkinsCount:1659		lat: 40.63613923841175	lng:-73.93345338797901	Category:4bf58dd8d48988d13b941735
VenueId:4b81ec60f964a52022c430e3		checkinsCount:1190		lat: 40.66462862113723	lng:-73.95758544809712	Category:4bf58dd8d48988d130941735

Category7:
VenueId:4c475aef49fa9521513d5e62		checkinsCount:3716		lat: 40.638686710137904	lng:-73.94365994050787	Category:4f2a210c4b9023bd5841ed28
VenueId:4da9f6f2f7b145b370058008		checkinsCount:981		lat: 40.63882349447704	lng:-73.9420124625236	Category:4d954b06a243a5684965b473
VenueId:4de151627d8b84d5dc8361e4		checkinsCount:975		lat: 40.63024760009566	lng:-73.95774616532685	Category:4d954b06a243a5684965b473
VenueId:4c17d70d4ff90f47db850d49		checkinsCount:866		lat: 40.66846523114249	lng:-73.99054689365978	Category:4d954b06a243a5684965b473
VenueId:4e552131152089dbfb2ff4da		checkinsCount:793		lat: 40.66970199110191	lng:-73.97266387939453	Category:4d954b06a243a5684965b473
VenueId:4a6bafeaf964a5209dcf1fe3		checkinsCount:758		lat: 40.653374	lng:-73.96245002746582	Category:4d954b06a243a5684965b473
VenueId:4eb9c3604fc6624001984782		checkinsCount:706		lat: 40.66479483927712	lng:-73.95116865634918	Category:4d954b06a243a5684965b473
VenueId:4e9a7472be7bc875aa830395		checkinsCount:650		lat: 40.664075385193634	lng:-73.95823979598147	Category:4d954b06a243a5684965b473
VenueId:4e4dce508877402b06ada738		checkinsCount:626		lat: 40.65228491423238	lng:-73.96176979235159	Category:4d954b06a243a5684965b473
VenueId:4e0d4e4a091acd6746d8e132		checkinsCount:486		lat: 40.64977003699423	lng:-73.9605912566185	Category:4d954b06a243a5684965b473

Category8:
VenueId:4b4cd551f964a520c8c026e3		checkinsCount:13331		lat: 40.631543741755145	lng:-73.94687408770778	Category:4bf58dd8d48988d1f6941735
VenueId:4a1079e9f964a520d5761fe3		checkinsCount:12581		lat: 40.65536200283102	lng:-74.0088951587677	Category:52e816a6bcbc57f1066b7a54
VenueId:3fd66200f964a52071eb1ee3		checkinsCount:9204		lat: 40.668773483618956	lng:-73.9799984680946	Category:4bf58dd8d48988d114951735
VenueId:4ac76e95f964a52032b720e3		checkinsCount:5633		lat: 40.66465	lng:-73.983541	Category:4bf58dd8d48988d1f5941735
VenueId:4ae492bff964a520ce9b21e3		checkinsCount:3716		lat: 40.630635123653555	lng:-74.00953030222017	Category:4bf58dd8d48988d118951735
VenueId:4a217611f964a520f77c1fe3		checkinsCount:3458		lat: 40.6449382371702	lng:-73.97986072638912	Category:4bf58dd8d48988d118951735
VenueId:4a2aa3bcf964a5202d961fe3		checkinsCount:2680		lat: 40.66323425152285	lng:-73.99152250765546	Category:52f2ab2ebcbc57f1066b8b46
VenueId:4b1726aef964a52011c323e3		checkinsCount:2427		lat: 40.64114802	lng:-73.96478	Category:50aa9e744b90af0d42d5de0e
VenueId:4c955ff7f244b1f7c5662b1d		checkinsCount:2280		lat: 40.664817330910076	lng:-73.9931810400601	Category:50aa9e744b90af0d42d5de0e
VenueId:4c3fa3e0af052d7fa5ac7a79		checkinsCount:1798		lat: 40.630573759386344	lng:-74.00854904157143	Category:4bf58dd8d48988d10f951735

Category9:
VenueId:4ab912baf964a520e77d20e3		checkinsCount:16628		lat: 40.65052298546056	lng:-73.96298110485071	Category:4bf58dd8d48988d1fd931735
VenueId:4b636f5df964a5209d792ae3		checkinsCount:15505		lat: 40.66161146080779	lng:-73.96224590222664	Category:4bf58dd8d48988d1fd931735
VenueId:4b7d7a14f964a520f2c02fe3		checkinsCount:13291		lat: 40.668692921378884	lng:-73.93140077590942	Category:4bf58dd8d48988d1fd931735
VenueId:4bb52e252ea19521bd20aa2f		checkinsCount:8911		lat: 40.63523850278024	lng:-73.9628791809082	Category:4bf58dd8d48988d1fd931735
VenueId:4b76cf7af964a520d3602ee3		checkinsCount:8433		lat: 40.65526229575358	lng:-73.9615085721016	Category:4bf58dd8d48988d1fd931735
VenueId:4bc0de0674a9a593e4d8d0f6		checkinsCount:8240		lat: 40.631802574062505	lng:-74.00615930557251	Category:4bf58dd8d48988d1fd931735
VenueId:4e2de053a8092ca5c37048b0		checkinsCount:7649		lat: 40.625956203702984	lng:-73.99701833724976	Category:4bf58dd8d48988d1fd931735
VenueId:4b22e3c3f964a520a84f24e3		checkinsCount:7507		lat: 40.649485135359	lng:-73.9758825302124	Category:4bf58dd8d48988d1fd931735
VenueId:4ae27e80f964a520a38e21e3		checkinsCount:6483		lat: 40.66700025400722	lng:-73.98167610168457	Category:4bf58dd8d48988d1fd931735
VenueId:4b105b45f964a520916e23e3		checkinsCount:6097		lat: 40.635055311990996	lng:-74.0117222070694	Category:4bf58dd8d48988d1fd931735

